STOP_ID,STOP_NAME,TOWN,TOWN_ID,ROUTE,SEQUENCE,LATITUDE,LONGITUDE
36466,Hyde Park Ave @ Oak Street,BOSTON,35,192,1,42.2548903655893,-71.1242765655446
6466,Hyde Park Ave @ Clay Street,BOSTON,35,192,2,42.2579782484142,-71.1235925026106
6467,Hyde Park Ave @ Harvard Ave,BOSTON,35,192,3,42.2605892756756,-71.1227589740029
6468,Hyde Park Ave @ West St,BOSTON,35,192,4,42.2617192688027,-71.1221047798364
6470,Hyde Park Ave @ Westminster St,BOSTON,35,192,5,42.2641085825083,-71.1213612863496
6471,Hyde Park Ave @ Thatcher St,BOSTON,35,192,6,42.2659734686625,-71.1210661739024
6472,Opp 945 Hyde Park Ave,BOSTON,35,192,7,42.2676658319641,-71.1209265793473
185,Mattapan Station - North Busway,BOSTON,35,191,1,42.2677550448229,-71.0920841773752
185,Mattapan Station - North Busway,BOSTON,35,191,144,42.2677560448229,-71.0920841773752
10582,River St opp Fremont St,BOSTON,35,191,2,42.269998113505,-71.0899792735092
579,River St @ Gladeside Ave,BOSTON,35,191,142,42.2701984899094,-71.0878173077732
583,River St opp Gladeside Ave,BOSTON,35,191,3,42.270304636372,-71.08744007482
6473,Hyde Park Ave @ Collins Street,BOSTON,35,192,8,42.2705038990628,-71.1204729972393
578,River St @ Newcroft Circle,BOSTON,35,191,141,42.2711188962552,-71.0844437874113
584,308 River St opp Newcroft Circle,BOSTON,35,191,4,42.2712242889391,-71.0838806623188
585,River St @ Leahaven Rd,BOSTON,35,191,5,42.2713237372517,-71.0824136605034
586,River St @ Meadowbank Ave,BOSTON,35,191,6,42.2713298258843,-71.0815476617852
588,River St opp Cedar St,BOSTON,35,191,8,42.2713629515788,-71.074875000007
576,River St opp Duxbury Rd,BOSTON,35,191,139,42.2713700373744,-71.0807738098187
587,168 River St opp Standard St,BOSTON,35,191,7,42.2717123318862,-71.0783382063475
589,River St opp Temple St,BOSTON,35,191,9,42.2718608277744,-71.0720066339895
571,Dorchester Ave @ Washington St,BOSTON,35,191,134,42.2722828284083,-71.0680230798753
590,River St @ Washington St,BOSTON,35,191,10,42.2724185897381,-71.0695431923659
6474,Hyde Park Ave @ American Legion Hwy,BOSTON,35,192,9,42.2728215231833,-71.1200710244782
591,Dorchester Ave opp Adirondack Pl,BOSTON,35,191,11,42.2732574133041,-71.0677959104453
882,Dorchester Ave @ Richmond St,BOSTON,35,191,12,42.2739740059609,-71.0676003277299
593,Dorchester Ave opp St Gregory St,BOSTON,35,191,13,42.2754003456378,-71.0672153057185
570,Dorchester Ave @ St Gregory St,BOSTON,35,191,132,42.2755768508666,-71.0671685491504
10569,2165 Dorchester Ave,BOSTON,35,191,131,42.2762543022126,-71.0669765281215
594,Opp 2165 Dorchester Ave,BOSTON,35,191,14,42.2763254812756,-71.0669555123472
6476,Hyde Park Ave @ Ramsdell Ave,BOSTON,35,192,10,42.276987106405,-71.1194511189936
595,Dorchester Ave opp Valley Rd,BOSTON,35,191,15,42.2779489036779,-71.0664895060354
569,Dorchester Ave @ Valley Rd,BOSTON,35,191,130,42.2780720586812,-71.0664528846077
537,Dorchester Ave @ Gallivan Blvd,BOSTON,35,191,129,42.2799936315061,-71.0659022419187
533,Dorchester Ave @ Gallivan Blvd,BOSTON,35,191,16,42.2802863390961,-71.0658230265312
6460,Cummins Hwy @ Rowe St,BOSTON,35,192,11,42.2806445611107,-71.1205531260959
6461,Cummins Hwy @ Brown Ave,BOSTON,35,192,12,42.2817608462723,-71.1223354882368
534,Dorchester Ave @ Van Winkle St,BOSTON,35,191,17,42.2819363325071,-71.0653557418472
536,Dorchester Ave @ Hurlcroft Ave,BOSTON,35,191,128,42.2820544605576,-71.0653217086028
6462,Cummins Hwy @ Sherwood St,BOSTON,35,192,13,42.2828450026792,-71.1238943976345
535,Dorchester Ave @ Mercier Ave,BOSTON,35,191,127,42.2831080758094,-71.0650309374411
397,Dorchester Ave @ Ashmont Busway,BOSTON,35,191,18,42.2835650919484,-71.0648928052562
6463,Cummins Hwy @ Sycamore St,BOSTON,35,192,14,42.2844109864894,-71.1250315089119
6464,Cummins Hwy @ Florence St,BOSTON,35,192,15,42.2851115329294,-71.1259992955736
795,Corinth St @ Washington St,BOSTON,35,192,19,42.2857252053964,-71.1290471498307
636,Washington St @ Cummins Hwy,BOSTON,35,192,16,42.2865505958704,-71.1280098120096
602,South St @ Taft Hill Terr,BOSTON,35,192,17,42.2868872819224,-71.1285193886413
797,Belgrade Ave @ Robert St,BOSTON,35,192,18,42.2869612948129,-71.1303812994946
30336,Dorchester Ave @ Dracut St,BOSTON,35,191,19,42.2869978924329,-71.0639454109548
337,Dorchester Ave @ Msgr Lydon Way,BOSTON,35,191,20,42.2880089047989,-71.0636686887091
332,Dorchester Ave @ Banton St,BOSTON,35,191,125,42.288289276191,-71.0635908681178
637,Washington St @ Firth Rd,BOSTON,35,192,20,42.2886735527378,-71.1257519023351
338,Dorchester Ave @ Shepton St,BOSTON,35,191,21,42.2893579490736,-71.0632887643902
331,Dorchester Ave opp Shepton St,BOSTON,35,191,124,42.289403024733,-71.0632764916899
638,Washington St @ Granfield Ave,BOSTON,35,192,21,42.2901132928364,-71.1242252047401
639,Washington St @ Whipple Ave,BOSTON,35,192,22,42.2915922371427,-71.1226366842717
339,Dorchester Ave @ King St,BOSTON,35,191,22,42.2919402980857,-71.0625707703662
330,Dorchester Ave @ Cheverus Rd,BOSTON,35,191,123,42.2922838017452,-71.0624679812724
640,Washington St @ Archdale Rd,BOSTON,35,192,23,42.292688901479,-71.1214787358651
340,Dorchester Ave @ Centre St,BOSTON,35,191,23,42.2935545407279,-71.0621236954424
329,Dorchester Ave @ Centre St,BOSTON,35,191,122,42.2937281604369,-71.0620698166597
641,Washington St @ Aldwin Rd,BOSTON,35,192,24,42.2947148145225,-71.1193274167125
341,Dorchester Ave @ Dix St,BOSTON,35,191,24,42.2949785982443,-71.0616935283932
328,1621 Dorchester Ave opp Dix St,BOSTON,35,191,121,42.2951334783972,-71.0616487433956
342,Dorchester Ave @ Parkman St,BOSTON,35,191,25,42.2960656098223,-71.0613714657017
327,Dorchester Ave @ Melville Ave,BOSTON,35,191,120,42.2961418157026,-71.0613466477473
642,Washington St @ Tollgate Way,BOSTON,35,192,25,42.2962996727257,-71.117661478345
343,Dorchester Ave @ Gibson St,BOSTON,35,191,26,42.2971072537506,-71.0610651089876
326,Dorchester Ave opp Gibson St,BOSTON,35,191,119,42.2972704323036,-71.0610176573091
325,Park St Busway @ Dorchester Ave,BOSTON,35,191,27,42.2982516230513,-71.0609201237886
322,Geneva Ave opp Vinson St,BOSTON,35,191,28,42.2990387400737,-71.0640196174169
556,Geneva Ave @ Tonawanda St,BOSTON,35,191,117,42.2995112852107,-71.0648325699419
557,452 Geneva Ave opp Bloomfield St,BOSTON,35,191,29,42.299841546361,-71.0654003235114
555,Geneva Ave @ Dakota St,BOSTON,35,191,116,42.300374680183,-71.0663075391231
10642,Forest Hills Station Upper Busway,BOSTON,35,192,26,42.300736122666,-71.1143520031759
10642,Forest Hills Station Upper Busway,BOSTON,35,192,90,42.300737122666,-71.1143520031759
558,Geneva Ave @ Westville St,BOSTON,35,191,30,42.3008939154437,-71.0671797174928
554,Geneva Ave @ Westville St,BOSTON,35,191,115,42.3011143036529,-71.0675467046285
559,Geneva Ave @ Topliff St,BOSTON,35,191,31,42.3014269790662,-71.0680852292624
560,Geneva Ave @ Holiday St,BOSTON,35,191,32,42.3022197433073,-71.0694181321415
553,Geneva Ave @ Holiday St,BOSTON,35,191,114,42.3023372000596,-71.0696141920434
561,Geneva Ave @ Levant St,BOSTON,35,191,33,42.3030038885527,-71.0707486234707
1515,Bowdoin St @ Geneva Ave,BOSTON,35,191,113,42.3034791313789,-71.0713873209567
1468,Bowdoin St @ Geneva Ave,BOSTON,35,191,34,42.303530147489,-71.0713452410388
1936,South St @ Spalding St,BOSTON,35,192,27,42.3037356034703,-71.1147019591085
1514,Bowdoin St @ Eunice St,BOSTON,35,191,112,42.3042630713331,-71.0696986424278
1469,169 Bowdoin St opp Eunice St,BOSTON,35,191,35,42.3043056381634,-71.069637988809
2007,South St @ St Rose St,BOSTON,35,192,89,42.3043876705118,-71.1147032765856
1513,Bowdoin St @ Olney St,BOSTON,35,191,111,42.3052613214834,-71.0682680795985
1470,Bowdoin St @ Norton St,BOSTON,35,191,36,42.3054682180023,-71.0679831036764
1471,Bowdoin St @ Hamilton St,BOSTON,35,191,37,42.30616011239,-71.0671054276505
2006,South St @ Jamaica St,BOSTON,35,192,88,42.3062018058514,-71.1150502444303
1512,Bowdoin St @ Hamilton St,BOSTON,35,191,110,42.3062966786583,-71.0669505224615
1937,South St @ Child St,BOSTON,35,192,28,42.3065250024674,-71.115196619537
11512,Bowdoin opp Mt Ida,BOSTON,35,191,109,42.3071886086266,-71.0659735463711
1472,Bowdoin St opp Elba Terr,BOSTON,35,191,38,42.3076218552887,-71.0655115414273
1938,South St @ Carolina Ave,BOSTON,35,192,29,42.3077903691686,-71.1155143062989
1511,Bowdoin St @ Quincy St,BOSTON,35,191,108,42.3081381674555,-71.0649725555369
1473,Bowdoin St @ Quincy St,BOSTON,35,191,39,42.3081851463655,-71.0649262777713
99991,South St @ Bardwell St,BOSTON,35,192,87,42.3083681250942,-71.1155492652542
1128,South St @ Sedgwick St,BOSTON,35,192,30,42.3085776602971,-71.1155605635742
1510,Bowdoin St @ Hendry St,BOSTON,35,191,107,42.3087911598476,-71.0642744947601
1939,775 Centre St,BOSTON,35,192,86,42.3099203134501,-71.1153050617368
1509,Bowdoin St @ Tovar St,BOSTON,35,191,106,42.3100738043818,-71.0631189722161
1474,Bowdoin St @ Winter St,BOSTON,35,191,40,42.3102287552187,-71.0627734260554
1508,Hancock St @ Bowdoin St,BOSTON,35,191,105,42.311224552376,-71.0626461404388
1475,Hancock St @ Bowdoin St,BOSTON,35,191,41,42.3112797548408,-71.0627080441597
11164,Centre St @ Burroughs St,BOSTON,35,192,85,42.3114476772502,-71.1144403165994
1129,Centre St @ Seaverns Ave,BOSTON,35,192,31,42.3121573448619,-71.1142320292582
1478,Hancock St @ Rowell St,BOSTON,35,191,42,42.312641602477,-71.0645167529862
1506,Hancock St @ Trull St,BOSTON,35,191,104,42.3126889425372,-71.0645838957401
1164,Centre St @ Myrtle St,BOSTON,35,192,84,42.3132966073405,-71.1140977038685
1130,Centre St @ Saint John St,BOSTON,35,192,32,42.3142033935429,-71.1141136383069
1479,Hancock St @ Jerome  St,BOSTON,35,191,43,42.3148330956593,-71.0658578173714
1504,Hancock St @ Bird St,BOSTON,35,191,103,42.314900591211,-71.0658845521607
1480,Columbia Rd @ Hancock St,BOSTON,35,191,44,42.3163562430817,-71.0659340320801
1503,Columbia Rd opp Cushing Ave,BOSTON,35,191,102,42.3167541523892,-71.065593986061
1132,Centre St @ Robinwood Ave,BOSTON,35,192,33,42.3169864081433,-71.1134238923522
1161,Centre St @ Lochstead Ave,BOSTON,35,192,83,42.3173356759454,-71.1131854280455
1481,Dudley St @ Belden St,BOSTON,35,191,45,42.3174957865134,-71.0661075611926
11501,Dudley St @ Virginia St,BOSTON,35,191,101,42.3176449157154,-71.0664592676365
11482,Dudley St @ Clifton St,BOSTON,35,191,46,42.3187670095047,-71.0692103475855
11131,Centre St @ Roseway,BOSTON,35,192,34,42.3190048338335,-71.1120048075409
1160,S Huntington Ave @ Moraine St,BOSTON,35,192,82,42.3196379938892,-71.1116532671572
14831,Dudley St opp Howard Ave,BOSTON,35,191,47,42.3200918698311,-71.0712031627377
1499,Dudley St @ W Cottage St,BOSTON,35,191,98,42.3212602349449,-71.0721900259341
1484,Dudley St @ E Cottage St,BOSTON,35,191,48,42.3214898837725,-71.072216185051
6570,S Huntington Ave @ Perkins St,BOSTON,35,192,35,42.3216852044559,-71.1120983310976
1498,Dudley St @ Dennis St,BOSTON,35,191,97,42.3236753401593,-71.0738448708107
6571,S Huntington Ave @ Bynner St,BOSTON,35,192,36,42.3238012743904,-71.1122519551622
1485,Dudley St @ Langdon St,BOSTON,35,191,49,42.3238268382298,-71.0739766808765
51365,S Huntington Ave @ Bynner St,BOSTON,35,192,80,42.3239851002642,-71.1122623970547
1486,Dudley St @ Magazine St,BOSTON,35,191,50,42.3251019461179,-71.0748515575082
1487,Dudley St @ Hampden St,BOSTON,35,191,51,42.326158986594,-71.0753988574753
31365,S Huntington Ave opp VA Hospital,BOSTON,35,192,79,42.3265349399531,-71.111395371831
6573,S Huntington Ave @ VA Hospital,BOSTON,35,192,37,42.3266923406451,-71.111312165298
1495,Dudley St @ Adams St,BOSTON,35,191,94,42.3276554796603,-71.0773165973017
1488,Dudley St @ Adams St,BOSTON,35,191,52,42.327799195453,-71.0775276431335
6574,S Huntington Ave @ Heath St,BOSTON,35,192,38,42.3284824649875,-71.1107142392872
1489,Dudley St @ Dearborn St,BOSTON,35,191,53,42.3284896558387,-71.0791392136488
1493,Dudley St @ Greenville St,BOSTON,35,191,93,42.3284940624217,-71.0810182879235
1491,Dudley St @ Warren St,BOSTON,35,191,54,42.32861996841,-71.0829703621151
65741,100 S Huntington Ave,BOSTON,35,192,39,42.3293846078947,-71.1109756424113
64,Dudley Station,BOSTON,35,191,55,42.3297081295863,-71.0839491925973
1,Washington St opp Ruggles St,BOSTON,35,191,56,42.3309840704232,-71.0828106731934
6575,S Huntington Ave @ Huntington Ave,BOSTON,35,192,40,42.3318579223173,-71.1120008377857
62,Washington St @ Williams St,BOSTON,35,191,90,42.3320136742737,-71.081666592972
2,Washington St @ Melnea Cass Blvd,BOSTON,35,191,57,42.3323782800364,-71.0813725291615
1315,Huntington Ave @ Parker Hill Ave,BOSTON,35,192,41,42.3331827110554,-71.1097054706271
1365,835 Huntington Ave opp Parker Hill Ave,BOSTON,35,192,76,42.3332291003613,-71.109275300049
1363,Huntington Ave @ Fenwood Rd,BOSTON,35,192,75,42.3337235608291,-71.1057125974173
1317,Huntington Ave opp Fenwood Rd,BOSTON,35,192,42,42.3337766554905,-71.1056165011631
1226,Tremont St @ Ruggles St,BOSTON,35,43,2,42.33478332973,-71.0887180115901
21317,Huntington Ave @ Wigglesworth St,BOSTON,35,192,43,42.3348799873863,-71.1027343348141
60,Washington St @ Lenox St,BOSTON,35,191,89,42.3349677459791,-71.0789100967162
92391,677 Huntington Ave,BOSTON,35,192,74,42.3350557281645,-71.1026989012876
4,Washington St @ Lenox St,BOSTON,35,191,58,42.3351776932209,-71.0786514799797
1255,Tremont St @ Columbus Ave,BOSTON,35,43,36,42.3352240202776,-71.088120379922
1227,Tremont St @ Melnea Cass Blvd,BOSTON,35,43,3,42.3357617524106,-71.0868746870284
31317,Huntington Ave @ Longwood Ave,BOSTON,35,192,44,42.3358990501453,-71.0999365658775
91391,Huntington Ave @ Longwood Ave,BOSTON,35,192,73,42.3359828545798,-71.1002092750796
17863,Ruggles Station - Lane 2,BOSTON,35,43,1,42.3363144455172,-71.0888720662314
17863,Ruggles Station - Lane 2,BOSTON,35,43,37,42.3363154455172,-71.0888720662314
55,Washington St @ Massachusetts Ave,BOSTON,35,191,88,42.3363377698137,-71.0771975655518
5,Washington St @ Massachusetts Ave,BOSTON,35,191,59,42.3363833061509,-71.0771374488762
38155,Riverside Sta,NEWTON,207,558,1,42.3367849913825,-71.2531552199048
38155,Riverside Sta,NEWTON,207,558,93,42.3367859913825,-71.2531552199048
81391,Huntington Ave @ Evans Way,BOSTON,35,192,72,42.3368189294234,-71.0980424985746
1254,Tremont St @ Burke St,BOSTON,35,43,35,42.3368918153846,-71.084792513058
1228,Tremont St @ Hammond St,BOSTON,35,43,4,42.3372802013745,-71.0840941961573
15176,Washington St @ Worcester St,BOSTON,35,191,87,42.3373067363892,-71.0758545174758
1787,Washington St @ Worcester St,BOSTON,35,191,60,42.3375468836092,-71.0755181711888
51317,Huntington Ave @ Ruggles St,BOSTON,35,192,45,42.337642506586,-71.0954304499463
71391,Huntington Ave @ Louis Prang St,BOSTON,35,192,71,42.337764698301,-71.0956498694103
11228,Tremont St @ Lenox St,BOSTON,35,43,5,42.337852074269,-71.0830580302808
19402,Washington St @ W Newton St,BOSTON,35,191,86,42.3387588829647,-71.0737871604993
1230,Tremont St @ Northampton St,BOSTON,35,43,6,42.3387810820479,-71.081207600931
1788,Washington St @ E Newton St,BOSTON,35,191,61,42.3387983774646,-71.0737309350531
1252,Tremont St @ Northampton St,BOSTON,35,43,33,42.338936539909,-71.0811227577874
61391,Huntington Ave @ Forsyth Way,BOSTON,35,192,70,42.3391634496487,-71.0921293046822
1231,Tremont St @ W Springfield St,BOSTON,35,43,7,42.3396069498473,-71.079649214268
1251,Tremont St @ W Springfield St,BOSTON,35,43,32,42.3396842257256,-71.0797632692449
1250,Tremont St @ Worcester St,BOSTON,35,43,31,42.3401753445395,-71.0787231304107
81317,360 Huntington Ave,BOSTON,35,192,46,42.3402943251964,-71.0888497387958
5100,Washington St @ Union Pk,BOSTON,35,191,85,42.3404339560751,-71.0712496967011
1232,Tremont St @ W Concord St,BOSTON,35,43,8,42.3404488996509,-71.0782082454713
41391,Huntington Ave @ Opera Pl,BOSTON,35,192,69,42.3404911114955,-71.0888682128713
1249,Tremont St @ Rutland Sq,BOSTON,35,43,30,42.340956756012,-71.0772517967797
65544,Washington St @ Commonwealth Ave,NEWTON,207,505,32,42.3412516083165,-71.2384028713531
1233,Tremont St @ W Newton St,BOSTON,35,43,9,42.3412741117673,-71.0766992178522
91317,Huntington Ave @ Gainsborough St,BOSTON,35,192,47,42.3412955758156,-71.086585928711
78215,Washington St @ Commonwealth Ave,NEWTON,207,505,20,42.3413324243548,-71.2383055716614
31391,Huntington Ave @ Gainsborough St,BOSTON,35,192,68,42.3413581127874,-71.0867880204278
5093,Washington St @ Union Pk,BOSTON,35,191,62,42.3415000558356,-71.0692352204685
1248,Tremont St @ Pembroke St,BOSTON,35,43,29,42.34170276362,-71.0758985987868
1234,Tremont St @ W Brookline St,BOSTON,35,43,10,42.3419295856911,-71.0754654715714
65545,Commonwealth Ave @ Windemere Rd,NEWTON,207,505,33,42.3419768186241,-71.2398941691566
15094,Washington St @ Savoy St,BOSTON,35,191,63,42.3420135453411,-71.0680840523404
78214,Commonwealth Ave @ Windemere Rd,NEWTON,207,505,19,42.3420777755836,-71.240064456528
5099,Washington St opp Savoy St,BOSTON,35,191,84,42.3421831266766,-71.067853159205
34513,Huntington Ave @ Mass Ave,BOSTON,35,192,48,42.3425659160772,-71.0850149321751
1235,Tremont St @ W Dedham St,BOSTON,35,43,11,42.342708868952,-71.0739905892154
5094,Washington St @ Perry St,BOSTON,35,191,64,42.3427460400184,-71.0671503507089
1247,Tremont St @ Dartmouth St,BOSTON,35,43,28,42.3428792966999,-71.0736674376587
34514,Huntington Ave @ Mass Ave,BOSTON,35,192,67,42.3428863962571,-71.0849694024149
65546,Commonwealth Ave opp Cheswick Rd,NEWTON,207,505,34,42.3430818902319,-71.2412237433314
78216,1600 Washington St,NEWTON,207,505,21,42.3431130107565,-71.2365001025557
78213,Commonwealth Ave @ Cheswick Rd,NEWTON,207,505,18,42.343242212432,-71.2413162576816
65543,Washington St @ Greenough St,NEWTON,207,505,31,42.343271983966,-71.2363276269431
1246,Tremont St @ Union Pk,BOSTON,35,43,27,42.3436421201755,-71.0722460118428
5098,Washington St @ E Berkeley St,BOSTON,35,191,83,42.3438493438501,-71.0660292395461
1236,Tremont St @ Waltham St,BOSTON,35,43,12,42.3439146478223,-71.0717033224082
5095,Washington St @ E Berkeley St,BOSTON,35,191,65,42.3441493133788,-71.0658367820912
210,Summer St @ Dry Dock Ave,BOSTON,35,4,13,42.344350363247,-71.0390387621176
30256,Dry Dock Ave @ Harbor St,BOSTON,35,4,12,42.3446253356531,-71.0373801820427
78212,Commonwealth Ave @ Auburn St,NEWTON,207,505,17,42.3446635683062,-71.2411083888423
7828,Commonwealth Ave @ Marriott,NEWTON,207,558,92,42.3447407431915,-71.2586390659109
65542,Washington St @ Auburn St,NEWTON,207,505,30,42.3449202177036,-71.2344473775873
7833,Commonwealth Ave @ Auburn St,NEWTON,207,505,35,42.3449483845301,-71.2409861221561
78218,Washington St @ Auburn St,NEWTON,207,505,22,42.3450037669032,-71.2343795561911
30249,Northern Ave @ Tide St,BOSTON,35,4,10,42.3451367587318,-71.031929019044
1237,Tremont St @ E Berkeley St,BOSTON,35,43,13,42.3451656645325,-71.0699242102246
11388,Huntington Ave @ Belvidere St,BOSTON,35,192,66,42.3452902216291,-71.0819701406881
11245,Tremont St @ Berkeley St,BOSTON,35,43,26,42.3454842942002,-71.0697088168455
15095,Washington St @ Herald St,BOSTON,35,191,66,42.3456322220028,-71.0649348238283
78219,Washington St @ Prospect St,NEWTON,207,505,23,42.3457309535986,-71.233449741155
1994,Winship St @ Union St,BOSTON,35,501,30,42.346163777115,-71.1524042409819
994,Winship St @ Union St,BOSTON,35,501,1,42.3462175187586,-71.15237082917
994,Winship St @ Union St,BOSTON,35,501,31,42.3462185187585,-71.15237082917
212,Summer St @ D St,BOSTON,35,4,14,42.346357695504,-71.0422372025037
168,Tremont St @ Appleton St,BOSTON,35,43,25,42.346620878999,-71.0690868214345
148,Herald St @ Washington St,BOSTON,35,191,82,42.3466313116843,-71.0646956899587
247,Northern Ave @ Harbor St,BOSTON,35,4,9,42.3466782615704,-71.0352438916705
7830,Commonwealth Ave @ Islington St,NEWTON,207,558,2,42.3470985601886,-71.2532724377776
7827,Commonwealth Ave @ Islington St,NEWTON,207,558,91,42.3471315842729,-71.2529888994353
7623,Washington St @ Shaw St,NEWTON,207,553,29,42.3472036335478,-71.2303462733821
890,Summer St @ WTC Ave,BOSTON,35,4,15,42.3473804047319,-71.0441341155193
7826,Commonwealth Ave opp Ash St,NEWTON,207,558,90,42.3473903207598,-71.2515410452492
1238,Tremont St @ Herald St,BOSTON,35,43,14,42.3473917286029,-71.0686597638921
65547,Commonwealth Ave @ Pamella Ct,NEWTON,207,505,36,42.3474320000019,-71.2451325811253
7831,Commonwealth Ave @ Ash St,NEWTON,207,558,3,42.3474835740886,-71.2512104704309
78211,Commonwealth Ave opp Pamella Ct,NEWTON,207,505,16,42.3474933226336,-71.2453827860309
1932,Boylston St @ Saint Cecilia St,BOSTON,35,193,37,42.3475662962027,-71.0868178301769
79,Massachusetts Ave @ Newbury St,BOSTON,35,193,36,42.3478523625322,-71.0880163338261
7832,Commonwealth Ave @ Melrose St,NEWTON,207,558,4,42.3479503298539,-71.2487314821931
1239,Tremont St @ Marginal St,BOSTON,35,43,15,42.3482201884609,-71.0676479592017
1301,7 Winship St,BOSTON,35,501,29,42.3487254001221,-71.150802231354
1242,Tremont St @ Charles St S,BOSTON,35,43,24,42.3487429100022,-71.0664835174366
7652,Elm St @ Washington St,NEWTON,207,553,67,42.3487484552289,-71.2290845849479
916,Washington St @ Lake St,BOSTON,35,193,15,42.3489019813443,-71.1601201789778
975,Washington St @ Brock St,BOSTON,35,193,75,42.3489238976037,-71.1605732837435
920,Cambridge St @ Washington St,BOSTON,35,193,19,42.3489856549707,-71.1501590768633
7651,Washington St @ Cherry St,NEWTON,207,553,66,42.3490163761929,-71.2280417647797
972,Washington St @ Waldo Terr,BOSTON,35,193,72,42.3490418656526,-71.1519933210102
919,Washington St opp Waldo Terr,BOSTON,35,193,18,42.3490533918555,-71.1521804213308
941,Commonwealth Ave @ Blandford St,BOSTON,35,193,35,42.3490653600341,-71.0996208156266
974,Washington St @ Foster St,BOSTON,35,193,74,42.349090772251,-71.1572233185511
917,Washington St @ Foster St,BOSTON,35,193,16,42.3490925167074,-71.1569916524932
7624,Washington St @ Highland St,NEWTON,207,553,30,42.3491338727714,-71.2275783007886
918,Washington St @ Chestnut Hill Ave,BOSTON,35,193,17,42.3491373638538,-71.154179532474
178,Saint James Ave @ Dartmouth St,BOSTON,35,192,65,42.349337286019,-71.0768237397567
7625,Washington St @ Chestnut St,NEWTON,207,553,31,42.3493531500998,-71.2254982182755
19201,Cambridge St opp Elko St,BOSTON,35,193,20,42.3493775079785,-71.1491248900138
951,Commonwealth Ave @ Silber Way,BOSTON,35,193,57,42.3493816796418,-71.1007523072207
76251,Washington St opp Armory St,NEWTON,207,553,32,42.3494389381183,-71.2198343779287
7650,Washington St @ Watertown St,NEWTON,207,553,65,42.349445252131,-71.2261813706731
939,Commonwealth Ave @ Hinsdale St,BOSTON,35,193,34,42.3494836622572,-71.1030431475245
7649,Washington St @ Armory St,NEWTON,207,553,64,42.3494925317489,-71.219594527365
6565,Washington St @ Tufts Med Ctr,BOSTON,35,191,67,42.3495579081902,-71.0637703555914
242,Seaport Blvd @ Seaport Hotel,BOSTON,35,4,8,42.3496043242387,-71.0408666904203
7834,Lexington St @ Auburndale Ave,NEWTON,207,505,37,42.3496563629176,-71.2472651093748
952,Commonwealth Ave @ Granby St,BOSTON,35,193,58,42.3497565368659,-71.1038033906727
7626,Washington St opp Cross St,NEWTON,207,553,33,42.3498090921462,-71.2182382002132
977,Washington St @ Montfern Ave,BOSTON,35,193,76,42.3498116445137,-71.1645007072618
78205,Lexington St @ Freeman St,NEWTON,207,505,15,42.3498307650934,-71.24717706244
938,Commonwealth Ave @ St Marys St,BOSTON,35,193,33,42.3498869222763,-71.1063608402175
173,Saint James Ave @ Clarendon St,BOSTON,35,192,64,42.3499007807134,-71.0746334463244
7621,Elm St @ Webster St,NEWTON,207,553,28,42.3499281576283,-71.2299057230209
914,Washington St opp Montfern Ave,BOSTON,35,193,14,42.3500417040344,-71.1648598056481
970,Cambridge St @ Sparhawk St,BOSTON,35,193,70,42.3500541760604,-71.1473925172659
175,Boylston St @ Dartmouth St,BOSTON,35,193,38,42.3500545671311,-71.0774463238588
7653,Elm St @ Webster St,NEWTON,207,553,68,42.3500588610477,-71.2299716896596
8281,285 Tremont St,BOSTON,35,191,81,42.3500689989913,-71.0652202638287
953,Commonwealth Ave @ St Marys St,BOSTON,35,193,59,42.3501094359149,-71.1066362330158
937,Commonwealth Ave @ Carlton St,BOSTON,35,193,32,42.3501715788874,-71.1086829009668
6555,Surface Artery @ Kneeland St,BOSTON,35,501,19,42.3502985527799,-71.059659803381
2215,B St @ Seaport Blvd,BOSTON,35,459,80,42.3503252517327,-71.0429072077764
30239,Congress St @ A St,BOSTON,35,459,90,42.3503381700182,-71.0484379234215
7647,Washington St @ Eddy St,NEWTON,207,553,62,42.3503498541795,-71.2157658074365
11218,Congress St @ A St,BOSTON,35,448,62,42.3503742199522,-71.048493512087
954,Commonwealth Ave @ University Rd,BOSTON,35,193,60,42.350385912221,-71.1088502741783
7627,Washington St opp Eddy St,NEWTON,207,553,34,42.3504670232188,-71.2153718387327
913,Washington St @ Breck Ave,BOSTON,35,193,13,42.3504774135011,-71.1666435781409
912,Tremont St @ Washington St,BOSTON,35,193,12,42.3504921165934,-71.1687972549759
891,Summer St opp Melcher St,BOSTON,35,4,16,42.3505140980763,-71.050882736346
979,Tremont St @ Washington St,BOSTON,35,193,78,42.3506056548122,-71.1685992583437
143,Boylston St @ Clarendon St,BOSTON,35,192,49,42.3506462543531,-71.075321294151
922,Cambridge St opp Dustin St,BOSTON,35,193,21,42.3507486462269,-71.1457389629619
981,Tremont St opp Tremont Pl,BOSTON,35,193,79,42.3507641382621,-71.1721844301584
969,Cambridge St @ Dustin St,BOSTON,35,193,69,42.3508000325392,-71.1456208186347
7646,Washington St @ Walker St,NEWTON,207,553,61,42.3508893817133,-71.212760503586
7629,Washington St opp Walker St,NEWTON,207,553,35,42.3508935992318,-71.2130762740611
935,Commonwealth Ave @ St Paul St,BOSTON,35,193,31,42.3508968005172,-71.1148196959709
910,Tremont St @ Tremont Pl,BOSTON,35,193,11,42.3509694026114,-71.1726176414145
6550,Lincoln St @ Beach St,BOSTON,35,501,15,42.3509701384798,-71.0585283373358
9983,Stuart St @ Charles St S,BOSTON,35,192,62,42.3509793617888,-71.0667846894241
177,Saint James Ave @ Arlington St,BOSTON,35,192,63,42.351005695961,-71.0704921129106
7630,Washington St @ Lowell Ave,NEWTON,207,553,36,42.3510232643255,-71.2107400295733
17645,Washington St @ Lowell St,NEWTON,207,553,60,42.3510604461585,-71.2105050066251
956,Commonwealth Ave @ Buick St,BOSTON,35,193,61,42.351236260187,-71.1159427218639
934,Commonwealth Ave @ Pleasant St,BOSTON,35,193,30,42.3513156607964,-71.1181894891447
238,Congress St @ Sleeper St,BOSTON,35,459,89,42.3514710437717,-71.0502010550701
892,Summer St @ Dorchester Ave,BOSTON,35,4,17,42.3515002475971,-71.0529986699254
909,Tremont St @ Cufflin St,BOSTON,35,193,10,42.3515111215747,-71.1737391023221
218,Congress St @ Sleeper St,BOSTON,35,448,63,42.3515639298797,-71.0503560409774
7620,37 Elm St,NEWTON,207,553,27,42.3516122642585,-71.2306588158186
982,Tremont St opp Cufflin St,BOSTON,35,193,80,42.351635294689,-71.1739972487866
933,Commonwealth Ave @ Babcock St,BOSTON,35,193,29,42.3516548907579,-71.1211358109932
7645,Washington St @ Walnut St,NEWTON,207,553,59,42.3516580615541,-71.2072050968724
7631,Washington St @ Walnut St,NEWTON,207,553,37,42.3516879690891,-71.2070481722069
1241,Charles St S @ Park Plaza,BOSTON,35,43,16,42.3517173381643,-71.067206485537
8167,Walnut St @ Washington St,NEWTON,207,556,52,42.3517620134285,-71.2073739778231
958,Commonwealth Ave @ Babcock St,BOSTON,35,193,62,42.351894091314,-71.1214417486702
7835,Lexington St @ Orris St,NEWTON,207,505,38,42.3519144452266,-71.2459384243068
967,Cambridge St @ Saunders St,BOSTON,35,193,68,42.3520375646514,-71.1416799421265
78204,Lexington St @ Orris St,NEWTON,207,505,14,42.3520828143822,-71.2458422165744
931,Brighton Ave @ Comm Ave,BOSTON,35,193,28,42.3521404109164,-71.1254250558897
959,1079 Commonwealth Ave,BOSTON,35,193,63,42.3521448938135,-71.1235220985715
6537,Washington St @ Essex St,BOSTON,35,191,68,42.3522896415865,-71.0626218890182
960,19 Brighton Ave,BOSTON,35,193,64,42.3523586448352,-71.1262275610032
6564,Summer St @ South Station- Red Line entrance,BOSTON,35,459,88,42.3524212558054,-71.0548821912267
924,Cambridge St @ Gordon St,BOSTON,35,193,22,42.3524393955691,-71.1405629860896
7654,Elm St @ River St,NEWTON,207,553,69,42.352577629928,-71.2310680146786
7632,Washington St @ Harvard St,NEWTON,207,553,38,42.3526930684928,-71.2023626314839
929,Brighton Ave @ Linden St,BOSTON,35,193,27,42.3527382654505,-71.1303156365062
7644,Washington St @ Harvard St,NEWTON,207,553,58,42.3527581394383,-71.2021290293474
962,Brighton Ave @ Linden St,BOSTON,35,193,65,42.352843978891,-71.1303035341185
983,Tremont St @ Playstead Rd,NEWTON,207,193,81,42.3528940187386,-71.1765408769579
928,Brighton Ave @ Harvard Ave,BOSTON,35,193,26,42.3529508691198,-71.1321673800798
907,Tremont St @ Pembroke St,NEWTON,207,193,9,42.3529966831314,-71.1767481212433
925,Cambridge St @ Barrows St,BOSTON,35,193,23,42.3531696015298,-71.1384858507663
8279,Tremont St opp Avery St,BOSTON,35,191,80,42.3532226281174,-71.0643033620858
927,Brighton Ave @ Allston St,BOSTON,35,193,25,42.3532339810156,-71.1345285524083
21511,Sleeper St @ Seaport Blvd,BOSTON,35,4,6,42.3532355827743,-71.0483523032723
964,Brighton Ave opp Quint St,BOSTON,35,193,66,42.3532752179777,-71.1338821751889
966,Cambridge St @ N Beacon St,BOSTON,35,193,67,42.3533516446662,-71.1379837536507
82851,Walnut St @ Page St,NEWTON,207,556,28,42.3533977651294,-71.2080361324388
926,Brighton Ave @ Cambridge St,BOSTON,35,193,24,42.3534315104507,-71.1366738710252
215,Northern Ave opp Federal Courthouse,BOSTON,35,4,7,42.3534885170607,-71.0470713348218
221,Atlantic Ave. @ Congress St.,BOSTON,35,4,5,42.3538372585396,-71.0532357601404
7655,River St  @ Mague Ave,NEWTON,207,553,70,42.35388600555,-71.2334596683006
985,Tremont St @ Waverly Ave,NEWTON,207,193,82,42.353928459059,-71.1787782274675
7643,Washington St @ Craft St,NEWTON,207,553,57,42.3539483164296,-71.1990168702095
7619,River St opp Mague St,NEWTON,207,553,26,42.3539654801473,-71.233565832078
76431,Washington St @ Crafts St,NEWTON,207,553,39,42.3540638305208,-71.1986639351157
906,Tremont St @ Waverly Ave,NEWTON,207,193,8,42.3540785539678,-71.1790542929493
16535,Otis St @ Summer St,BOSTON,35,459,86,42.3542187058272,-71.0585300717146
16535,Otis St @ Summer St,BOSTON,35,448,66,42.3542197058272,-71.0585300717146
1195,Cambridge St @ Emery Rd,BOSTON,35,501,23,42.3542287746028,-71.1358257031209
905,Tremont St opp Hibbard Rd,NEWTON,207,193,7,42.3547704895048,-71.1810957257483
986,Tremont St @ Hibbard Rd,NEWTON,207,193,83,42.3547883330611,-71.1812008918727
7633,Washington St @ Lewis Terr,NEWTON,207,553,40,42.3548210376508,-71.1958773329712
222,Atlantic Ave @ Seaport Blvd.,BOSTON,35,4,19,42.3549080479615,-71.0512240478476
78573,Adams St @ Washington St,NEWTON,207,558,40,42.3549583006352,-71.1958041992727
7618,River St  @ Pine St,NEWTON,207,553,25,42.3550450272571,-71.2351430027835
7656,River St @ Sheridan St,NEWTON,207,553,71,42.3551199091292,-71.2352645505475
78203,181 Lexington St,NEWTON,207,505,13,42.3552512710782,-71.2422393370815
6551,Federal St @ Franklin St,BOSTON,35,501,16,42.3552652454184,-71.0565087938171
904,Park St @ Elmwood St,NEWTON,207,193,6,42.3554297415058,-71.1822988552254
6535,Franklin St @ Devonshire St,BOSTON,35,448,65,42.3554801850666,-71.0572467725087
1193,Cambridge St @ Franklin St,BOSTON,35,501,22,42.3554973528159,-71.1328606964248
7634,Washington St @ Jewett St,NEWTON,207,553,41,42.3554999623766,-71.1919775100911
16551,Congress St @ Franklin St,BOSTON,35,4,4,42.3555337781272,-71.0555480446414
7641,Washington St @ Jewett St,NEWTON,207,553,55,42.3555512714679,-71.19173762988
78202,161 Lexington St,NEWTON,207,558,85,42.3555574994609,-71.2416442333065
987,Park St @ Tremont St,NEWTON,207,193,84,42.3555980760752,-71.1823096479551
8189,Walnut St @ Watertown St,NEWTON,207,556,27,42.3557520173719,-71.2089741172697
7837,Lexington St @ Roberta Rd,NEWTON,207,505,40,42.3557710948106,-71.2412764140901
7635,Washington St @ Church St,NEWTON,207,553,42,42.3559045703007,-71.1902362833425
7640,Washington St @ Hovey St,NEWTON,207,553,54,42.3559644858569,-71.1900237042411
9980,Charles St @ Beacon St,BOSTON,35,43,17,42.3560351595274,-71.0693471369834
10000,Tremont St opp Winter St,BOSTON,35,191,79,42.3561314177019,-71.0623968782741
76561,River St @ William St,NEWTON,207,553,72,42.3561593308406,-71.236828182263
9031,400 Centre St,NEWTON,207,193,5,42.3562193216735,-71.1842675195928
76171,River St opp Williams St,NEWTON,207,553,24,42.3562351769551,-71.2369269235457
223,Atlantic Ave @ Rowes Wharf,BOSTON,35,4,20,42.3562737026555,-71.0508026635135
7801,Adams St @ Middle St,NEWTON,207,558,57,42.3566783769066,-71.1980102995613
6539,350 Washington St,BOSTON,35,193,40,42.3567643065095,-71.0590064818858
16539,Milk St @ Devonshire St,BOSTON,35,191,69,42.3567707584914,-71.0574799113451
7858,Adams St @ Lincoln Rd,NEWTON,207,558,39,42.3568252845179,-71.1981910625652
9981,Beacon St opp Walnut St,BOSTON,35,43,18,42.3570009654711,-71.0657922417508
903,Washington St @ Bacon St,NEWTON,207,193,4,42.3571004477694,-71.1859292025859
7657,River St @ James St,NEWTON,207,553,73,42.3571100659286,-71.238361461073
7617,River St @ James St,NEWTON,207,553,23,42.3571693842436,-71.2384792209102
1191,Cambridge St @ Lincoln St,BOSTON,35,501,21,42.3574088689561,-71.1280158996969
11891,Pearl St @ Congress St,BOSTON,35,191,70,42.3574866840552,-71.0563332517218
9982,Beacon St @ Park St,BOSTON,35,43,19,42.3576961977788,-71.0633161104747
78201,Lexington St @ Rumford St,NEWTON,207,505,12,42.3577219893146,-71.2396742618493
7744,Walnut St @ Linwood Ave,NEWTON,207,556,26,42.3577405188506,-71.210832428305
7616,River St @ Lexington St,NEWTON,207,553,22,42.3577607479073,-71.2395170390478
988,Centre St @ Jefferson St,NEWTON,207,193,85,42.358009134063,-71.1847101659315
49704,Tremont St @ Beacon St,BOSTON,35,191,78,42.3580829525886,-71.0603665736014
78571,Adams St @ Quirk St,NEWTON,207,558,38,42.3583220365144,-71.2001544051162
1900,Centre St @ Pearl St,NEWTON,207,193,3,42.3584643462956,-71.1849478093564
6547,Devonshire St @ State St,BOSTON,35,4,3,42.35858484324,-71.0572573580433
30233,Atlantic Ave @ Milk St,BOSTON,35,4,21,42.3586495378098,-71.0515514460568
190,Congress St @ State St,BOSTON,35,191,71,42.3587701671677,-71.0567854505682
65,State St @ Washington Mall - State St Sta,BOSTON,35,352,15,42.3588124013095,-71.0575286399885
1190,Cambridge St @ Seattle St,BOSTON,35,501,20,42.3588517415786,-71.1238409281993
86968,Lexington St @ Whitlowe Rd,NEWTON,207,505,11,42.3591642275554,-71.2394260502486
7839,Rumford Ave @ Buttrick St,WALTHAM,308,558,10,42.3593279188882,-71.2435385705286
7743,Crafts St @ California St,NEWTON,207,556,25,42.3594448005242,-71.2131164074801
49703,"Cambridge St @ Center Plaza - Gov't Ctr",BOSTON,35,191,77,42.3595222119094,-71.0598784108407
224,Atlantic Ave @ State St-Marriot Hotel,BOSTON,35,4,22,42.3595437245276,-71.0517959720444
81684,Crafts St @ North St,NEWTON,207,556,57,42.3597421264938,-71.2153461991584
7742,Crafts St @ North St,NEWTON,207,556,24,42.3597647678066,-71.2156679630013
81685,Crafts St @ Albemarle St,NEWTON,207,556,58,42.3598482220882,-71.2166023848853
7741,Crafts St @ Albemarle St,NEWTON,207,556,23,42.3598901887274,-71.2171926539987
88346,Sunnyside St @ South St,WALTHAM,308,553,99,42.3599051917565,-71.2623663252173
7802,Adams St @ Watertown St,NEWTON,207,558,58,42.3599335835917,-71.2022665318427
902,Galen St @ Boyd St,WATERTOWN,314,193,2,42.3600027863216,-71.1853817673783
8187,Watertown St @ Adams St,NEWTON,207,558,37,42.3600966428462,-71.2022351825344
76591,Moody St @ Adams Ave,WALTHAM,308,505,43,42.36011889666,-71.2393078908852
81686,Crafts St @ Harding St,NEWTON,207,556,59,42.3603037819931,-71.2219413633654
191,Congress St @ North St,BOSTON,35,191,72,42.3603653708511,-71.0571925072011
7740,Crafts St @ Waltham St,NEWTON,207,556,22,42.3604508532813,-71.2228350702717
4510,Cambridge St @ Government Ctr Sta,BOSTON,35,352,17,42.3607233294871,-71.0606441063898
8171,Watertown St @ Chapel St,NEWTON,207,558,59,42.360835014448,-71.2002408159868
7856,Chapel St @ Watertown  St,NEWTON,207,558,36,42.3608466547497,-71.2001836872845
28310,Cambridge St @ Saltonstall Bldg - Bowdoin Sq,BOSTON,35,191,76,42.3609878243303,-71.0616873503008
7804,Chapel St @ Watertown St,NEWTON,207,558,60,42.3609883322867,-71.2001605121415
7818,Rumford Ave @ Woerd Ave,WALTHAM,308,558,82,42.3610531114148,-71.2455609944914
7841,Rumford Ave @ Woerd Ave,WALTHAM,308,558,11,42.3611249239355,-71.2456666967018
86967,Moody St opp Underwood Pk,WALTHAM,308,505,10,42.3611412582219,-71.2391554384282
49702,Cambridge St @ Bowdoin St,BOSTON,35,191,75,42.3611552793475,-71.0625521470918
30203,Congress St opp Hanover St,BOSTON,35,194,43,42.3613955359514,-71.0576704676561
81687,Waltham St @ Lodge Rd,NEWTON,207,556,60,42.3614410642247,-71.2235940081385
7739,Walthm St @ Lodge Rd,NEWTON,207,556,21,42.361583669005,-71.2237375210563
7600,South St @ Angelside St,WALTHAM,308,553,1,42.3616101640293,-71.2609704798479
7600,South St @ Angelside St,WALTHAM,308,553,100,42.3616111640293,-71.2609704798479
76592,Moody St @ Derby St,WALTHAM,308,505,44,42.3616178124819,-71.2390862847192
88345,South St @ Turner St,WALTHAM,308,553,98,42.3617655274064,-71.2608479241397
117,Congress St @ Haymarket  Sta,BOSTON,35,191,73,42.3620073104977,-71.0579518197111
225,Atlantic Ave @ Commercial Wharf,BOSTON,35,4,23,42.3621741210459,-71.0511013014015
4511,New Sudbury @ Congress St,BOSTON,35,352,18,42.3622393243812,-71.0589365254132
7855,75 Chapel St,NEWTON,207,558,35,42.3622431439441,-71.2008568698805
7842,48 Woerd Ave,WALTHAM,308,558,12,42.362363688836,-71.244592722619
7817,Opp 48 Woerd Ave,WALTHAM,308,558,81,42.3625368437745,-71.2445246857957
7738,Waltham St @ Bonita St,NEWTON,207,556,20,42.362941538207,-71.2253547137008
81688,Waltham St @ Hazelhurst Ave,NEWTON,207,556,61,42.3630986585037,-71.225491364321
8310,Haymarket Station,BOSTON,35,424,1,42.363099555601,-71.058146980401
8310,Haymarket Station,BOSTON,35,117,36,42.363100555601,-71.058146980401
17670,South St opp Old South St,WALTHAM,308,553,97,42.3631474330289,-71.2597071442018
76593,Moody St @ Washington Ave,WALTHAM,308,505,45,42.3631648916235,-71.2388528042747
86965,Moody St @ Orange St,WALTHAM,308,505,9,42.3634792554818,-71.2388103189979
7843,Crescent St @ Woerd Ave,WALTHAM,308,558,13,42.363827630324,-71.2434575415157
226,Commercial St @ Fleet St,BOSTON,35,4,24,42.3640758769549,-71.0510812921809
7752,High St @ Hamblin Rd,WALTHAM,308,556,62,42.3640857176732,-71.2264638890462
77379,High St @ Hamblin Rd,WALTHAM,308,556,19,42.3642569801225,-71.2266543651232
900,Watertown Yard,WATERTOWN,314,193,1,42.3642669778428,-71.1857052080484
900,Watertown Yard,WATERTOWN,314,193,87,42.3642679778428,-71.1857052080484
88344,South St @ Brandeis University,WALTHAM,308,553,96,42.3643844514161,-71.258486755454
7660,Moody St @ Robbins St,WALTHAM,308,505,46,42.3644878930716,-71.2385578249145
7602,South St opp Brandeis Univ Entrance,WALTHAM,308,553,2,42.3650984349479,-71.2566771388898
7806,California St @ Bridge St,NEWTON,207,558,62,42.365167185169,-71.2042988181294
7844,Crescent St @ Robbins St,WALTHAM,308,558,14,42.3651779797101,-71.2436930508284
2832,N Washington St @ Thacher St,BOSTON,35,194,49,42.3651798734271,-71.058355363688
7854,California St @ Bridge St,NEWTON,207,558,34,42.3651872187268,-71.2042114681862
7815,Crescent St opp Robbins St,WALTHAM,308,558,79,42.3653552793793,-71.2436381478527
114,Causeway St. @ North Station,BOSTON,35,194,42,42.365546726828,-71.0612159310658
114,Causeway St. @ North Station,BOSTON,35,4,27,42.365547726828,-71.0612159310658
77378,High St @ Hovey Rd,WALTHAM,308,556,18,42.3655644950027,-71.2283946992106
77521,High St @ Cedar St,WALTHAM,308,556,63,42.3656062372822,-71.2284743154682
76594,Moody St @ Ash St,WALTHAM,308,505,47,42.3657106747287,-71.2381705704626
2829,N Washington St @ Medford St,BOSTON,35,426,49,42.3657503210731,-71.0584076760478
86964,Moody St @ Ash St,WALTHAM,308,505,8,42.365918419058,-71.238098959064
7753,High St @ Pamenter Rd,WALTHAM,308,556,64,42.3661047709901,-71.2296557084378
77377,High St @ Parmenter Rd,WALTHAM,308,556,17,42.3661915892846,-71.2298743572603
7853,540 Pleasant St,WATERTOWN,314,558,32,42.3662875577253,-71.2075693615801
78513,Pleasant St @ Paramount Pl,WATERTOWN,314,558,31,42.3663864148323,-71.2097006178606
78531,Pleasant St @ Bridge St,WATERTOWN,314,558,33,42.3664926178338,-71.2048641656481
7094,Terminal C - Departures Level,BOSTON,35,448,60,42.3666240186207,-71.0172174124828
77376,High St @ Newton St,WALTHAM,308,556,16,42.366775736604,-71.2313032874974
7580,570 Pleasant St,WATERTOWN,314,558,30,42.3668496422043,-71.2115348138136
7754,High St @ Newton St,WALTHAM,308,556,65,42.3668873025655,-71.2316439686669
230,Commercial St. @ Hanover St.,BOSTON,35,4,25,42.3671361544294,-71.0523812875341
77541,High St @ Gardner St,WALTHAM,308,556,66,42.3672059471069,-71.2331852911782
7603,254 South St,WALTHAM,308,553,3,42.3673589798179,-71.2530814173056
78512,700 Pleasant St,WATERTOWN,314,558,29,42.367427172753,-71.2137498251765
2833,N Washington St @ Commercial St,BOSTON,35,194,50,42.3674554488888,-71.0588098656668
76595,Moody St @ High St,WALTHAM,308,505,48,42.3675315025067,-71.2375559589608
7755,High St @ Hall St,WALTHAM,308,556,67,42.3675510422868,-71.2355458561778
77375,High St @ Beech St,WALTHAM,308,556,15,42.3675753952482,-71.2357218867814
77551,High St @ Moody St,WALTHAM,308,556,68,42.3676563678802,-71.237415135953
86963,Moody St @ Maple St,WALTHAM,308,505,7,42.3676989341885,-71.2375086703314
78141,Crescent St opp Cherry St,WALTHAM,308,558,78,42.3677269877207,-71.2428492599269
231,Commercial St. opp. Hull St.,BOSTON,35,4,26,42.3678121788606,-71.0573040470396
78073,Opp 700 Pleasant St,WALTHAM,308,558,66,42.3679923385355,-71.2158887383024
76031,South St opp Shakespeare Rd,WALTHAM,308,553,4,42.3682339458223,-71.2514635318162
88342,South St @ Shakespeare Rd,WALTHAM,308,553,95,42.3683679892487,-71.2512435322943
7852,River St @ Seyon St,WALTHAM,308,558,28,42.3684892675069,-71.2176248408966
7845,Crescent St @ Maple St,WALTHAM,308,558,15,42.3685664615376,-71.2423262289435
5740,Maverick Station,BOSTON,35,117,34,42.3691741623064,-71.0396926815398
7670,Hope Ave @ Sterling Medical Center,WALTHAM,308,553,5,42.3694620953021,-71.2484961442076
76596,Moody St @ Cushing St,WALTHAM,308,505,49,42.369591470263,-71.2371936699847
7814,113 Crescent St,WALTHAM,308,558,77,42.3696310024285,-71.2412280593552
86962,Moody St @ Walnut  St,WALTHAM,308,505,6,42.369659322496,-71.2371833754953
78511,River St @ Willow St,WALTHAM,308,558,27,42.3699404696223,-71.2212126385187
7846,Crescent St @ Walnut St,WALTHAM,308,558,16,42.3701956026186,-71.2406337299641
7847,Spruce St @ Moody St,WALTHAM,308,558,18,42.3705990622771,-71.2372420988715
7851,River St @ School Ave,WALTHAM,308,558,26,42.3707315146374,-71.2231620353399
7809,River St @ School Ave,WALTHAM,308,558,68,42.3707898757861,-71.223286066831
7813,Crescent St  @ Spruce St,WALTHAM,308,558,76,42.3708259664241,-71.2398659333387
78461,Spruce St @ Crescent St,WALTHAM,308,558,17,42.3709069326941,-71.2395180386499
7605,South St @ Dartmouth St,WALTHAM,308,553,6,42.3711156429181,-71.2502752779809
88340,South St @ Bedford St,WALTHAM,308,553,93,42.3715065100355,-71.2501582840447
7850,River St @ Bright St,WALTHAM,308,558,25,42.371522235018,-71.2246109813783
86961,Moody St @ Crescent St,WALTHAM,308,505,5,42.3715500304535,-71.2368747762377
76597,Moody St @ Pine St,WALTHAM,308,505,50,42.3718507277652,-71.2368232822549
12829,Chelsea St @ Warren St,BOSTON,35,93,15,42.3718939164168,-71.060950185166
5737,Meridian St @ Havre St,BOSTON,35,117,33,42.3720229000613,-71.0390212302038
12836,Chelsea St @ Warren St,BOSTON,35,194,51,42.3722054315811,-71.0603098600377
28281,Main St @ Park St,BOSTON,35,194,41,42.3722581193936,-71.061952297565
5742,Meridian St @ Havre St,BOSTON,35,117,35,42.3724943610521,-71.0390339093175
86971,Moody St  @ Carter St,WALTHAM,308,505,51,42.3726495210051,-71.2366741678047
7811,River St @  Ripley St,WALTHAM,308,558,70,42.3726763367102,-71.2268052346553
7849,River St @ Ripley St,WALTHAM,308,558,24,42.3727771092054,-71.2270049208405
2855,Park St @ Warren St,BOSTON,35,194,40,42.373192303974,-71.0608100785807
7848,River St @ Newton St,WALTHAM,308,558,23,42.3733725303475,-71.2281846624115
7812,River St @  Newton St,WALTHAM,308,558,71,42.3734314735874,-71.2282830217578
2835,Warren St @ Winthrop St,BOSTON,35,92,18,42.3735821622678,-71.0615484293181
2827,Main St @ Harvard St,BOSTON,35,92,9,42.3736920761173,-71.0627145781681
12858,Chelsea St @ Constitution Rd,BOSTON,35,194,52,42.373762787047,-71.0582952694032
89339,59 South St,WALTHAM,308,553,92,42.3737938658265,-71.249965720029
5736,Meridian St @ Liverpool St,BOSTON,35,117,32,42.3740791152344,-71.0390730749873
76051,64 South St,WALTHAM,308,553,7,42.37412032981,-71.2500192527911
78471,River St @ Jackson St,WALTHAM,308,558,22,42.3741560519447,-71.2312973167985
2854,Adams St @ Lowney Way,BOSTON,35,194,39,42.3743668539583,-71.0581869936006
86944,Carter St @ Waltham Comm Rail Sta,WALTHAM,308,553,85,42.3745424398081,-71.2357309645367
88333,Carter St opp Commuter Rail Station,WALTHAM,308,505,4,42.3746066956859,-71.2353641144884
12826,Main St @ Union St,BOSTON,35,92,8,42.3746286591369,-71.0637709123885
2836,Warren St @ Church St,BOSTON,35,92,19,42.3750638806248,-71.0636328247226
76052,South St @ Russell St,WALTHAM,308,553,8,42.3755019473987,-71.2500390263542
12838,Chelsea St @ Fifth St,BOSTON,35,194,53,42.3756338090511,-71.0558345252477
86970,Moody St @ Main St.,WALTHAM,308,505,1,42.3757483983059,-71.2369509711187
86970,Moody St @ Main St.,WALTHAM,308,505,52,42.3757493983059,-71.2369509711187
88339,South St @ Weston St,WALTHAM,308,553,91,42.375758669185,-71.2500291030973
2853,Bunker Hill St @ Lowney Way,BOSTON,35,194,38,42.3758520400214,-71.056252212241
86942,702 Main St,WALTHAM,308,553,13,42.3761622485258,-71.2381893415376
88334,691 Main St,WALTHAM,308,553,86,42.3761696168449,-71.237813210764
86941,Main St @ Daniels Ct,WALTHAM,308,553,12,42.3761899783137,-71.2401840635035
18335,Main St @ Grant St,WALTHAM,308,553,88,42.3762460962381,-71.2416486912736
86940,Main St @ Harvard St,WALTHAM,308,553,11,42.376253486612,-71.2441162393579
88336,Main St @ Fiske St,WALTHAM,308,553,89,42.3762561177508,-71.2437112431362
86939,Main St @ Prospect St,WALTHAM,308,553,10,42.3762723222898,-71.2463713023014
88337,Main St @ Hammond St,WALTHAM,308,553,90,42.3762757120893,-71.246572807742
86938,Main St @ Wellington St,WALTHAM,308,553,9,42.3762895782965,-71.2479936870635
2825,Main St @ W School St,BOSTON,35,92,7,42.3764341438617,-71.0656655482404
2837,Main St @ School St,BOSTON,35,92,20,42.3766502434535,-71.0659568511521
2852,Bunker Hill St @ Vine St,BOSTON,35,194,37,42.3767738815112,-71.0569671301731
2860,Vine St @ Moulton St,BOSTON,35,194,54,42.376855390784,-71.056348766808
77245,36 Hammond St,WALTHAM,308,556,6,42.3768603502572,-71.2467930768919
5734,Meridian St @ Lexington St,BOSTON,35,117,31,42.3770237849509,-71.0391559344459
2851,Bunker Hill St @ Ferrin St,BOSTON,35,194,36,42.3777022865508,-71.0588355226569
7797,Lexington St @ School St,WALTHAM,308,505,3,42.3777873515384,-71.2357015699406
6598,Common St @ School St,WALTHAM,308,505,2,42.3779327556716,-71.2368278800085
7859,School St @ Lexington St,WALTHAM,308,554,89,42.3779896231192,-71.235593267575
2861,121 Bunker Hill St opp Lexington St,BOSTON,35,194,55,42.3780162782826,-71.0597512646638
2824,Main St @ Dunstable St,BOSTON,35,92,6,42.3781222913292,-71.0677275435661
2838,Main St @ Walker St,BOSTON,35,92,21,42.3783088967938,-71.0679428775859
2850,Bunker Hill St @ Concord St,BOSTON,35,194,35,42.3783372734798,-71.0607335656763
8901,Bacon St @ School St,WALTHAM,308,556,76,42.3785236234195,-71.2424706076252
2862,Bunker Hill St @ Polk St,BOSTON,35,194,56,42.3786107226737,-71.0614463887116
5733,Meridian St @ Eutaw St,BOSTON,35,117,30,42.3787618816564,-71.0392119683342
77244,Hammond St @ Columbus Ave,WALTHAM,308,556,5,42.3787908924196,-71.2467166261715
2849,Bunker Hill St @ School St,BOSTON,35,194,34,42.3791032732982,-71.0629418526709
2863,Bunker Hill St @ Pearl St,BOSTON,35,194,57,42.3793841526937,-71.0635214127543
8383,Bacon St @ Pond St,WALTHAM,308,556,77,42.3797072050034,-71.24230612358
2848,Bunker Hill St @ Sullivan St,BOSTON,35,194,33,42.3799190795552,-71.0645901468356
2839,Main St @ Oak St,BOSTON,35,92,22,42.3800072630745,-71.0696847025931
2823,Main St @ Middlesex St,BOSTON,35,92,5,42.3801632187569,-71.0698412096571
2864,Bunker Hill St @ Sackville St,BOSTON,35,194,58,42.3802422362872,-71.0652283656985
7860,Lexington St @ Lexington Terr,WALTHAM,308,554,90,42.3803300232297,-71.2361299319549
5732,Meridian St @ White St,BOSTON,35,117,29,42.3803826021653,-71.0392471912308
77243,Hammond St  @ Lawrence St,WALTHAM,308,556,4,42.3804222797075,-71.2466288681929
17711,Belmont St  @ Lexington St,WATERTOWN,314,554,101,42.3806947004034,-71.1895381441802
7795,130 Lexington St @ Shopping Plaza,WALTHAM,308,554,15,42.3807429242157,-71.2362410452508
7711,Lexington St @ Belmont St,BELMONT,26,554,4,42.380922590891,-71.189261003281
2847,Bunker Hill St @ Clarken Ct,BOSTON,35,194,32,42.380942888125,-71.0666311626082
77110,Belmont St opp Duff St,WATERTOWN,314,554,5,42.3810579041947,-71.1929926981699
2865,Bunker Hill St @ N Mead St,BOSTON,35,194,59,42.3811103216763,-71.0669623682258
77051,Belmont St @ Duff St,WATERTOWN,314,554,100,42.3811187613318,-71.1932171405794
2822,Main St @ Baldwin St,BOSTON,35,92,4,42.381216380792,-71.0708763772725
7696,Beaver St @ Warren St,WALTHAM,308,554,8,42.3813057844937,-71.2032389196686
5731,Meridian St @ West Eagle St,BOSTON,35,117,28,42.3813675715109,-71.0392841370038
7718,Bacon St @ Athletic Field Rd,WALTHAM,308,556,78,42.3813817701779,-71.2421474381286
75791,Warren St @ Webster Rd,WALTHAM,308,554,98,42.3817153564216,-71.2012601875675
77242,Hammond St @ Plympton St,WALTHAM,308,556,3,42.3817461927966,-71.2465562905589
7713,Warren St @ Waverley St,WALTHAM,308,554,7,42.3817577280156,-71.2010182614516
2866,Bunker Hill St @ St Martin St,BOSTON,35,194,60,42.3818238381479,-71.0684144343734
2846,Bunker Hill St @ Auburn St,BOSTON,35,194,31,42.3819911186832,-71.0687511196833
7705,Warren St @ Brookline St,WALTHAM,308,554,99,42.3824225235179,-71.1987609471733
7712,Warren St @ Brookline St,WALTHAM,308,554,6,42.3824612401622,-71.1985097577919
2845,Bunker Hill St @ Baldwin St,BOSTON,35,194,30,42.3824850089708,-71.0697553143754
5730,Meridian St @ Condor St,BOSTON,35,117,27,42.3826462267246,-71.0393159000296
77241,184 Hammond St,WALTHAM,308,556,2,42.3827695097134,-71.2468192484452
78600,135 Beaver St.,WALTHAM,308,554,9,42.3831154751066,-71.2084587817616
32840,Main St @ Bunker Hill St,BOSTON,35,92,24,42.3832093902818,-71.0718244986057
2821,Main St @ Bunker Hill St,BOSTON,35,92,3,42.3832916170527,-71.0717969636998
2844,Bunker Hill St @ Main St,BOSTON,35,194,29,42.3833914971733,-71.0716068304949
7724,Tomlin St @ Summit St,WALTHAM,308,556,1,42.3836137339148,-71.2488874805299
7724,Tomlin St @ Summit St,WALTHAM,308,556,82,42.3836147339148,-71.2488874805299
2842,Cambridge St @ Maffa Way,BOSTON,35,194,64,42.3837483679344,-71.0748731549601
12821,Main St opp Schraffts Bldg,BOSTON,35,194,28,42.3837545293617,-71.0722898169757
7697,Beaver St @ Waverly Oak St,WALTHAM,308,554,10,42.3838027239405,-71.2098746132794
7710,Lexington St @ Burnham St,BELMONT,26,554,3,42.3839208666533,-71.1893962674788
2874,Sullivan Station - Upper Busway,BOSTON,35,194,65,42.38394090794,-71.0764986246623
2874,Sullivan Station - Upper Busway,BOSTON,35,92,27,42.38394190794,-71.0764986246623
28741,Sullivan Station - Lower Busway,BOSTON,35,194,27,42.3841181079083,-71.0762767622765
2841,529 Main St,BOSTON,35,194,63,42.3844045788375,-71.0727600959496
7721,Dale St opp Caughey St,WALTHAM,308,556,79,42.3845919233798,-71.2437301083744
7865,Beaver St @ Valley View Rd,WALTHAM,308,554,91,42.3846026820731,-71.231601496639
9518,Beaver St @ Linden St,WALTHAM,308,554,11,42.3849797160793,-71.2166231920252
7700,Beaver St @ Valley View Rd,WALTHAM,308,554,14,42.3849861801066,-71.2321058011675
7722,Dale St @ Claremont St,WALTHAM,308,556,80,42.3849948744544,-71.2452233029807
7699,Beaver St opp Field Rd,WALTHAM,308,554,12,42.3854042350176,-71.2233760018546
2717,Main St @ Dorrance St,BOSTON,35,194,66,42.3854980631271,-71.0759489263553
7698,Beaver St @ Forest St,WALTHAM,308,554,13,42.3856187034557,-71.2261018663357
7723,Tomlin St @ Dale St,WALTHAM,308,556,81,42.3856401219264,-71.2487296211555
7709,Lexington St @ Sycamore St,BELMONT,26,554,2,42.3858247382977,-71.1906058694565
2714,Broadway @ Mt Vernon St,SOMERVILLE,274,194,26,42.3861141367743,-71.0786130769065
4727,McClellan Highway @ Addison St,BOSTON,35,459,93,42.3861605495866,-71.0192512584742
4722,McClellan Highway opp Addison St,BOSTON,35,459,78,42.3861987996189,-71.019338847657
2713,Broadway @ Lincoln St,SOMERVILLE,274,194,25,42.3866820766414,-71.0805922187985
2718,Broadway @ Austin St,SOMERVILLE,274,194,67,42.3868433938162,-71.0807818995469
2712,Broadway @ Franklin St,SOMERVILLE,274,194,24,42.3871206003422,-71.0821486211347
2719,Broadway @ Indiana Ave,SOMERVILLE,274,194,68,42.3873661001313,-71.0825155891153
2099,Trapelo Rd @ Church St,BELMONT,26,554,1,42.387575121512,-71.1899610946277
2099,Trapelo Rd @ Church St,BELMONT,26,554,104,42.387576121512,-71.1899610946277
2711,Broadway @ Glen St,SOMERVILLE,274,194,23,42.3878442715529,-71.084280313253
2720,Broadway @ Michigan Ave,SOMERVILLE,274,194,69,42.3879669707178,-71.0842410742189
5729,Pearl St @ Williams St,CHELSEA,57,117,26,42.3879755832807,-71.0386718801368
2710,Broadway @ Cross St,SOMERVILLE,274,194,22,42.3886664932783,-71.086064850239
2721,Broadway @ Cross St,SOMERVILLE,274,194,70,42.3886779950215,-71.0858010941255
2722,Broadway @ Kensington Ave,SOMERVILLE,274,194,71,42.3893710756899,-71.0872962639062
2709,Broadway St @ MacArthur St,SOMERVILLE,274,194,21,42.3893791968454,-71.0876552683122
5728,Pearl St opp Essex St,CHELSEA,57,117,25,42.3895210544326,-71.0376368912437
2708,Broadway @ McGrath Hwy,SOMERVILLE,274,194,20,42.3897949150226,-71.088594405789
5653,Broadway opp Cross St,CHELSEA,57,117,24,42.3905152501946,-71.0381188132901
2707,Broadway @ Montgomery Ave,SOMERVILLE,274,194,19,42.3905409198255,-71.0902088476919
2723,Broadway @ Fellsway W,SOMERVILLE,274,194,72,42.3907113316688,-71.0901108044711
4728,McClellan Highway @ Boardman St,BOSTON,35,459,94,42.3915988611958,-71.0129682835627
2724,Broadway @ Grant St,SOMERVILLE,274,194,73,42.3916012844969,-71.0915801647962
4721,McClellan Highway @ Boardman St,BOSTON,35,459,77,42.391632394594,-71.013123256804
5606,Broadway @ Fourth St,CHELSEA,57,117,23,42.3917687487491,-71.0358901327455
2706,Broadway @ Marshall St,SOMERVILLE,274,194,18,42.3922073556111,-71.0927614218456
2725,Broadway @ Temple St,SOMERVILLE,274,194,74,42.3924786172574,-71.0929885117403
2705,Broadway opp Temple St,SOMERVILLE,274,194,17,42.3925980582545,-71.0934944826066
5605,Washington Ave @ Broadway,CHELSEA,57,117,22,42.3928281193096,-71.034076926289
2726,Broadway @ Langmaid Ave,SOMERVILLE,274,194,75,42.3930957529762,-71.0942012886767
4720,McClellan Highway opp Suffolk Downs,BOSTON,35,459,76,42.3936432598889,-71.0114949362149
46170,Broadway @ City Hall Ave,CHELSEA,57,117,21,42.3937576350115,-71.0323674356826
2704,Broadway @ Thurston St,SOMERVILLE,274,194,16,42.393839361103,-71.095872755321
2727,Broadway @ Fenwick St,SOMERVILLE,274,194,76,42.3939806771972,-71.0958880870561
5726,Broadway opp Gerrish Ave,CHELSEA,57,117,20,42.394552100041,-71.0309673689784
2703,Broadway opp Main St,SOMERVILLE,274,194,15,42.3947730445724,-71.0977319564415
2729,Broadway @ Main St,SOMERVILLE,274,194,77,42.3947820736804,-71.0974678673848
5725,Broadway @ Crescent Ave,CHELSEA,57,117,19,42.3953425284772,-71.0295631710312
2730,Broadway opp Adams St,SOMERVILLE,274,194,78,42.3956105164075,-71.0994492250145
2702,Broadway @ Bartlett St,SOMERVILLE,274,194,14,42.3958666730581,-71.1000390337143
4730,Burbank Hwy @ Suffolk Downs,REVERE,248,459,95,42.395962201612,-71.0094281449263
5724,Broadway @ Cary Ave,CHELSEA,57,117,18,42.3959924476304,-71.028418342343
2731,Broadway opp Glenwood Rd,SOMERVILLE,274,194,79,42.3962670043865,-71.1010242566423
2701,Broadway @ Norwood Ave,SOMERVILLE,274,194,13,42.3966662449037,-71.1022325815914
2732,Broadway opp Norwood Ave,SOMERVILLE,274,194,80,42.3967706022626,-71.1025633673702
5723,Broadway @ Parker St,CHELSEA,57,117,17,42.3968990459652,-71.0268348817637
4731,Opp 40 Burbank Hwy,REVERE,248,459,96,42.3972416090164,-71.0084000763656
2733,Broadway @ Medford St - Magoun Sq,SOMERVILLE,274,194,81,42.3972805696427,-71.1041383437677
4719,40 Burbank Hwy,REVERE,248,459,75,42.3974793208831,-71.0083938673982
2699,Broadway @ Hinckley St - Magoun Sq,SOMERVILLE,274,194,12,42.3975983014272,-71.1051486500901
5722,Broadway @ Eleanor St,CHELSEA,57,117,16,42.3977970223545,-71.0252375193825
2734,Broadway @ William St,SOMERVILLE,274,194,82,42.3978422357464,-71.1059402165204
2735,Broadway @ Alfred St,SOMERVILLE,274,194,83,42.3983744526132,-71.1075924508524
2698,Broadway @ Cedar St,SOMERVILLE,274,194,11,42.3984087870002,-71.1077069098528
5721,Broadway opp Green St,CHELSEA,57,117,15,42.3987344430537,-71.0235905283438
5720,Broadway @ Webster Ave,CHELSEA,57,117,14,42.3997267280511,-71.0222941668724
2697,Broadway @ Josephine St - Ball Sq,SOMERVILLE,274,194,10,42.3997860049559,-71.1118124194679
2736,Broadway @ Boston Ave - Ball Sq,SOMERVILLE,274,194,84,42.3999153072316,-71.1121904272537
2737,Broadway @ Pearson Rd,SOMERVILLE,274,194,85,42.4005437740284,-71.1140897338467
2696,Broadway @ Bay State Ave,SOMERVILLE,274,194,9,42.4006618165093,-71.1144503716808
2693,Broadway @ Billingham St,SOMERVILLE,274,194,6,42.4008001278059,-71.119088705123
2740,Broadway @ Walker St,SOMERVILLE,274,194,88,42.4008149132341,-71.1182866536944
2694,Broadway @ College Ave,SOMERVILLE,274,194,7,42.4008468303747,-71.1175611402923
5719,Broadway @ Stockton St,CHELSEA,57,117,13,42.4008635895814,-71.0210041225086
2739,Broadway @ Powder House Blvd,SOMERVILLE,274,194,87,42.4008679890707,-71.1172303309792
2695,Broadway opp Warner St - Powder House Sq,SOMERVILLE,274,194,8,42.4009908842444,-71.1165958159118
2738,Broadway @ Warner St - Powder House Sq,SOMERVILLE,274,194,86,42.4011311109986,-71.1164016344755
2741,Broadway @ Leonard St,SOMERVILLE,274,194,89,42.4011405416795,-71.1209178175143
2692,Broadway @ Simpson Ave,SOMERVILLE,274,194,5,42.4014037240595,-71.1220242686587
2742,Broadway @ Mason St,SOMERVILLE,274,194,90,42.4016019050808,-71.1228208675925
4732,281 Burbank Hwy,REVERE,248,459,97,42.4016387221343,-71.0048908820639
5718,Broadway @ Cabot St,CHELSEA,57,117,12,42.4020238469037,-71.0196729445464
2691,Broadway opp Packard Ave,SOMERVILLE,274,194,4,42.4022417751908,-71.1248436490523
4718,280 Burbank Hwy,REVERE,248,459,74,42.4023888303423,-71.0044877825617
2744,Broadway @ Westminster Ave,SOMERVILLE,274,194,92,42.402915737057,-71.1263757574195
2634,Broadway @ Curtis St,SOMERVILLE,274,194,93,42.4033382750281,-71.1273530965079
2635,Broadway @ Dickson St,SOMERVILLE,274,194,94,42.4039139166929,-71.1285404275624
2576,Broadway @ Weston Ave,SOMERVILLE,274,194,3,42.4040526495369,-71.1287357497052
5715,Broadway @ Page St,REVERE,248,117,11,42.4050162698217,-71.0162338523551
2575,Broadway @ Garrison Ave,SOMERVILLE,274,194,2,42.4051171199159,-71.1301784251225
2715,Broadway @ Belknap St,SOMERVILLE,274,194,95,42.4052307117935,-71.1303326417804
2636,Broadway @ North St,SOMERVILLE,274,194,96,42.4059031538897,-71.1315004523613
2637,Clarendon Hill Busway,SOMERVILLE,274,194,1,42.4060987917581,-71.1323276397017
2637,Clarendon Hill Busway,SOMERVILLE,274,194,97,42.4060997917581,-71.1323276397017
5714,Broadway @ Yeamans St,REVERE,248,117,10,42.4082307561498,-71.0135046923117
5783,Beach St opp Nahant Ave,REVERE,248,117,3,42.408808459796,-70.9955599284559
5788,Beach St @ School St,REVERE,248,117,8,42.4089364338478,-71.0088565649352
5786,Beach St @ Harris St,REVERE,248,117,6,42.4090519432659,-71.0035866046144
15787,Beach St @ Cary Ave,REVERE,248,117,7,42.4092859882413,-71.0068064639836
4733,Beach St @ Upham St - Bell Circle,REVERE,248,117,5,42.4096332169897,-71.0003378376659
15782,opp 1456 North Shore Rd,REVERE,248,117,2,42.4097220701372,-70.9932132509414
4526,American Legion Hwy @ Bell Circle,REVERE,248,424,2,42.4099520421927,-71.001865646469
5784,Beach St @ VFW Pkwy,REVERE,248,117,4,42.4099532949622,-70.9988928450866
14717,American Legion Hwy @ Beach St - Bell Circle,REVERE,248,434,65,42.4100551148932,-71.0020310923335
5789,Central Ave @ Broadway,REVERE,248,117,9,42.4102600009893,-71.0117806613553
45261,133 - 135 American Legion Hwy,REVERE,248,424,3,42.4126225139147,-71.0029104985732
4716,N Shore Rd opp Wonderland Station,REVERE,248,448,59,42.4132570553092,-70.9930136758201
15795,Wonderland West Busway,REVERE,248,117,1,42.4133693217828,-70.992076610414
4512,American Legion Hwy @ Revere St,REVERE,248,424,4,42.4164425305451,-71.0032764433568
4500,American Legion Hwy @ Revere St,REVERE,248,434,64,42.416633084236,-71.0033382181644
63241,37 Riverside Ave @ Medford Sq,MEDFORD,176,326,10,42.4177429676324,-71.1079993445673
63242,Clippership Rd opp City Hall,MEDFORD,176,326,11,42.4180987703124,-71.105187805117
5002,Salem St opp River St,MEDFORD,176,326,15,42.4185191910149,-71.1078947698937
15002,High St @ Bradlee Rd,MEDFORD,176,326,16,42.4186956145915,-71.1114887136836
6324,High St opp Governors Ave,MEDFORD,176,326,9,42.4187507338242,-71.1117413754517
4513,American Legion Hwy @ Hutchinson St,REVERE,248,424,5,42.4188583144341,-71.00200392587
4499,American Legion Hwy @ Hutchinson St,REVERE,248,434,63,42.4189057947297,-71.0021453354309
5003,High St @ Hillside Ave,MEDFORD,176,326,17,42.4190960625448,-71.1129664481188
5321,Salem St @ Hadley Pl,MEDFORD,176,325,6,42.4196100772654,-71.1015768068023
6323,High St opp Powder House Rd,MEDFORD,176,326,8,42.4201161920378,-71.1148796128613
5004,High St @ Powder House Rd,MEDFORD,176,326,18,42.4201707274993,-71.1149836263927
4498,462 American Legion Hwy,REVERE,248,434,62,42.4206683688011,-71.0033379793514
6298,High St @ Essex St,MEDFORD,176,326,20,42.420803931789,-71.119905515235
5322,Salem St @ Park St,MEDFORD,176,325,7,42.420846427856,-71.0986976120334
4515,Brown Circle Rotary,REVERE,248,424,6,42.4208892899219,-71.0035281923654
6303,High St @ Warren St - W Medford Sq,MEDFORD,176,326,25,42.4210708212438,-71.1311935891548
6322,High St @ Winthrop St - Winthrop Circle,MEDFORD,176,326,7,42.4211779410322,-71.1174079147832
5005,High St @ Rural Ave - Winthrop Circle,MEDFORD,176,326,19,42.4212424436451,-71.1175861267975
5008,300 Winthrop St,MEDFORD,176,326,6,42.4214520747665,-71.1181362741523
5323,Salem St @ Dudley St,MEDFORD,176,325,8,42.4214951505551,-71.0971207890927
6302,High St @ Allston St,MEDFORD,176,326,24,42.4215243821585,-71.128659720587
6301,High St @ Mystic St,MEDFORD,176,326,23,42.4217186822127,-71.1262392213279
4497,Broadway @ Ward St,REVERE,248,434,61,42.4217228891549,-71.0044539811521
6300,High St @ Wolcott St,MEDFORD,176,326,22,42.421738210594,-71.1247712233052
6304,Playstead Rd @ Irving St - W Medford Sta,MEDFORD,176,326,26,42.4217711493953,-71.133056039429
6299,High St @ Woburn St,MEDFORD,176,326,21,42.4218080316471,-71.1231309001527
5324,Salem St @ Garfield Ave,MEDFORD,176,325,9,42.4218880385832,-71.0952927082679
5325,Salem St @ Grant Ave,MEDFORD,176,325,10,42.4223743734212,-71.0926914161353
6305,Playstead Rd @ Madison St,MEDFORD,176,326,27,42.4230140827311,-71.1344053879694
5333,Salem St @ Fellsway Garage,MEDFORD,176,325,11,42.4231348303412,-71.0911912569506
9150,Winthrop St @ Suffolk St,MEDFORD,176,326,5,42.4238248928694,-71.1209317459099
6306,Playstead Rd @ Chardon Rd,MEDFORD,176,326,28,42.4244793087093,-71.1346302527408
83111,Fellsway W @ Fells Ave,MEDFORD,176,325,12,42.424547681554,-71.0916607720989
8312,205 Fellsway W,MEDFORD,176,325,13,42.4249084437425,-71.0946502202267
8313,Fellsway W @ Fern Rd,MEDFORD,176,325,14,42.4253603141068,-71.0972770872294
9149,Winthrop St @ Exeter St,MEDFORD,176,326,4,42.4254125390114,-71.1229867183372
6307,Playstead Rd @ Clewley Rd,MEDFORD,176,326,29,42.4258144245193,-71.1348996951048
8314,Fellsway W @ Fulton St,MEDFORD,176,325,15,42.4258551103398,-71.1010492501927
9147,Winthrop St @ Brooks St - Medford HS,MEDFORD,176,326,3,42.4274224543528,-71.1258562918169
6308,Playstead Rd @ Dianne Rd,MEDFORD,176,326,30,42.4275497916274,-71.1342204188635
8315,Fellsway W @ Ridgeway Rd - Roosevelt Circle,MEDFORD,176,325,16,42.4287274992092,-71.1025671307081
8303,Fellsway W @ S Border Rd,MEDFORD,176,325,2,42.4297772393262,-71.1037803606239
9146,578 Winthrop St.,MEDFORD,176,326,2,42.4297884254808,-71.1296777629338
6309,Playstead Rd @ Osborne Rd,MEDFORD,176,326,31,42.4298339629318,-71.1324262393026
7414,Squire Rd @ Super Stop + Shop,REVERE,248,426,48,42.4305837484231,-71.0207873202211
8316,Fellsway W @ Fulton Springs Rd,MEDFORD,176,325,17,42.4306997677537,-71.1021250759019
45151,107 Salem Tnpk,REVERE,248,424,7,42.4307121035765,-70.9974766273977
7415,Squire Rd @ Showcase Cinema,REVERE,248,426,52,42.4307213840957,-71.0208698214401
16310,Playstead Rd @ Winthrop St,MEDFORD,176,326,1,42.4315238295273,-71.1312209145224
16310,Playstead Rd @ Winthrop St,MEDFORD,176,326,32,42.4315248295273,-71.1312209145224
7413,Beach St @ Hancock Rd,MALDEN,165,426,47,42.4317711444216,-71.0245612791731
7412,Lynn St @ Beach St,MALDEN,165,426,46,42.4321542715858,-71.025259448701
7417,Wesley St @ Lynn St,MALDEN,165,426,53,42.4328516766927,-71.0241511330766
8317,Fellsway W @ Foss St,MEDFORD,176,325,18,42.4332338244904,-71.1011462050264
7418,Lynn St opp Revere St,MALDEN,165,426,54,42.4336476518329,-71.0234447293948
7411,Lynn St @ Oliver St,MALDEN,165,426,45,42.4338018628502,-71.0232718096901
7410,Lynn St @ Lawrence St,REVERE,248,426,44,42.4350313096256,-71.0220060477242
8301,Fellsway W @ Elm St,MEDFORD,176,325,19,42.4355741084713,-71.1017499216991
8302,Fellsway W opp. Elm St,MEDFORD,176,325,1,42.4360819674511,-71.1020957608214
9070,Salem St @ Lynn St,MALDEN,165,428,54,42.4361392005173,-71.0216546092821
8338,Kennedy Dr @ Granada Highlands - Bldg 184,MALDEN,165,428,50,42.4363179342497,-71.0318537348379
8336,Kennedy Dr @ Granada Highlands - Main Stop,MALDEN,165,428,49,42.4364502485601,-71.0331311660728
7409,Salem St @ Cutler Hwy,REVERE,248,426,43,42.4372542655111,-71.0206241359027
18338,Kennedy Dr @ Granada Highlands - Bldg 142,MALDEN,165,428,51,42.4374260208749,-71.0305264145534
17419,Salem St @ Cutler Hwy,REVERE,248,426,56,42.4375212068686,-71.0197997315949
46267,Kennedy Dr @ Salem St,MALDEN,165,428,47,42.4376932066639,-71.0251542385512
46268,Kennedy Dr @ Central Ave,MALDEN,165,428,48,42.4380989478083,-71.0295240501766
7408,Salem St @ Waitt Ct,REVERE,248,426,42,42.4392729910402,-71.0174080804462
7422,Salem St @ Marshall St N,REVERE,248,426,58,42.4404968016815,-71.015491600168
7407,Salem St @ Walnut St,REVERE,248,426,41,42.4406819015657,-71.0153590734316
7406,Salem St @ Franklin St,REVERE,248,426,40,42.4415413327776,-71.0147521937614
7423,Salem St opp Clifton St,REVERE,248,426,60,42.443605156967,-71.0133116656077
7405,Salem St @ Clifton St,SAUGUS,262,426,39,42.4437719672891,-71.0131947623732
7404,Lincoln Ave @ Laurel St,SAUGUS,262,426,38,42.4448306107883,-71.0124133850945
7424,Lincoln Ave opp Laurel St,SAUGUS,262,426,61,42.4449251475249,-71.0123427396866
7403,Lincoln Ave @ Linwood St,SAUGUS,262,426,37,42.4461843600844,-71.0114034874987
7426,Lincoln Ave @ Western Ave,SAUGUS,262,426,62,42.4467523442335,-71.0109782008024
7427,Lincoln Ave @ Lincoln Ct,SAUGUS,262,426,63,42.4476993185285,-71.0102690462744
7401,Lincoln Ave @ Jackson St,SAUGUS,262,426,36,42.4485739262608,-71.0095208238886
7429,Lincoln Ave @ Cliftondale Sq,SAUGUS,262,426,64,42.4486008137724,-71.0091315655992
17429,Lincoln Ave @ Charlotte Rd,SAUGUS,262,426,65,42.4489538062527,-71.0066685383564
4516,Salem Tnpk @ Ballard St,SAUGUS,262,424,8,42.449375752517,-70.9806163985303
4495,Salem Tnpk @ Ballard St,SAUGUS,262,434,60,42.4493859925521,-70.9808171370578
7400,Lincoln Ave @ Oak Hill Rd,SAUGUS,262,426,35,42.44946703948,-71.0059736346124
7395,Lincoln Ave @ Atlantic Ave,SAUGUS,262,426,30,42.4496863996051,-70.9964167359824
7430,Lincoln Ave opp Kent St,SAUGUS,262,426,66,42.4497413727426,-71.0056867840838
7399,Lincoln Ave @ Central St,SAUGUS,262,426,34,42.4498530739366,-71.0054929257793
7433,Lincoln Ave @ Nason Rd,SAUGUS,262,426,69,42.4499161894597,-70.9988764929529
7396,Lincoln Ave opp Nason Rd,SAUGUS,262,426,31,42.4499257074806,-70.9990570254878
7431,Lincoln Ave @ Morton Ave,SAUGUS,262,426,67,42.4499457186234,-71.0024291747161
7398,Lincoln Ave @ Intervale Ave,SAUGUS,262,426,33,42.4499611969168,-71.0028617415148
7397,Lincoln Ave opp Sunnyside Pk,SAUGUS,262,426,32,42.449969962603,-71.0006654827028
7432,Lincoln Ave @ Sunnyside Pk,SAUGUS,262,426,68,42.4499702043159,-71.0009491110762
7435,Lincoln Ave @ Bristow St,SAUGUS,262,426,71,42.4502047485888,-70.9943019425075
7394,Lincoln Ave opp Bristow St,SAUGUS,262,426,29,42.4503125005147,-70.994120271298
7393,Lincoln Ave @ Overlea Ave,SAUGUS,262,426,28,42.4510710466403,-70.9932756486754
7437,Lincoln Ave @ Guild Rd,SAUGUS,262,426,73,42.4518559435661,-70.9925212649117
7392,Lincoln Ave opp Guild Rd,SAUGUS,262,426,27,42.4520109571512,-70.9924012970815
7438,Lincoln Ave @ Bates St,SAUGUS,262,426,74,42.4529466924749,-70.9917394467047
7391,Lincoln Ave opp Dudley St,SAUGUS,262,426,26,42.4531409816597,-70.9916034044405
4518,1067 Western Ave,LYNN,163,424,9,42.4537251811232,-70.9757727805376
7390,Lincoln Ave @ Chestnut St,SAUGUS,262,426,25,42.454681977559,-70.9905298940837
4520,Western Ave opp Lynn Garage,LYNN,163,424,10,42.4551803409537,-70.9741150548058
7439,Lincoln Ave @ Ballard St,SAUGUS,262,426,75,42.4553190847416,-70.9903616869298
4492,Western Ave @ MBTA Lynn Garage,LYNN,163,434,58,42.4553295415915,-70.9739429110922
45211,Western Ave opp Ida St,LYNN,163,424,11,42.4560446792461,-70.9731163879609
7609,Winter St @ Chestnut St,SAUGUS,262,428,27,42.4561285965945,-70.9919369925689
7389,Lincoln Ave @ Wendell  St,SAUGUS,262,426,24,42.4562093679327,-70.9901291079102
7440,60 Lincoln Ave,SAUGUS,262,426,76,42.4565098979209,-70.99004485322
7608,Winter St opp Stocker St,SAUGUS,262,428,26,42.456607762026,-70.9933156179189
7453,Burns St @ Western Ave,LYNN,163,426,90,42.4572560955019,-70.9718587142665
4490,Western Ave @ Burns St,LYNN,163,434,56,42.4572657826049,-70.9717024752309
7607,Winter St @ Johnson Rd,SAUGUS,262,428,25,42.457332875094,-70.9961276504349
7466,60 Winter St,SAUGUS,262,428,96,42.4574904669912,-70.9965810422047
4521,Western Ave @ Minot St,LYNN,163,424,12,42.4575884868854,-70.9713268923814
7388,Lincoln Ave @ Vincent St,SAUGUS,262,426,23,42.4576403676598,-70.9897370433076
7376,Summer St @ Linden St,LYNN,163,426,12,42.4577440721697,-70.97323337628
7441,Lincoln Ave @ Vincent St,SAUGUS,262,426,77,42.4577566590096,-70.9897041964885
7452,Summer St @ River St,LYNN,163,426,89,42.4577776725855,-70.9728440084622
7377,Summer St opp Margin St,LYNN,163,426,13,42.4583104080915,-70.9761339749858
7606,Winter St @ Westland Ave,SAUGUS,262,428,24,42.4584355816975,-70.9993115322621
4489,Western Ave @ Summer St,LYNN,163,434,55,42.4584633395264,-70.9703235454028
4522,Western Ave @ Summer St,LYNN,163,424,13,42.4587113197374,-70.970032213765
7468,Winter St @ Riverside Pk,SAUGUS,262,428,98,42.4588225637129,-71.0004058751223
7450,Summer St @ Dearborn Ave,LYNN,163,426,87,42.4588280122308,-70.9770716716502
7442,30 Lincoln Ave,SAUGUS,262,426,78,42.4588501259601,-70.989390621213
7378,Summer St opp Dearborn Ave,LYNN,163,426,14,42.4589110060747,-70.9772181105726
7599,Winter St opp Riverside Pk,SAUGUS,262,428,23,42.4589430272418,-71.0007530310723
7597,153 Winter St,SAUGUS,262,428,21,42.459252956365,-71.0052084616231
7470,Opp 153 Winter St,SAUGUS,262,428,100,42.4592708072326,-71.0053036884296
7598,Winter St @ Kenwood Ave,SAUGUS,262,428,22,42.4593844827548,-71.0029553062129
7469,Winter St opp Kenwood Ave,SAUGUS,262,428,99,42.4594008139582,-71.0030889159831
7379,Summer St @ Raddin Grove Ave,LYNN,163,426,15,42.459558162656,-70.9783586212416
7596,Winter St @ E Denver St,SAUGUS,262,428,20,42.4601991288997,-71.0075162756228
7380,787 Summer St,LYNN,163,426,16,42.4602186248585,-70.9795231034086
7386,Boston St @ Hamilton St,LYNN,163,426,22,42.4604065284422,-70.988738215213
4488,Western Ave @ Breed Square,LYNN,163,426,11,42.4604840389138,-70.968079956562
7443,Boston St opp Hamilton St,LYNN,163,426,79,42.4605020378433,-70.9886987428502
4523,Western Ave @ Walden St,LYNN,163,424,14,42.46072611332,-70.9678358498596
7381,800 Summer St,LYNN,163,426,17,42.4610081836877,-70.9809109944121
7448,Summer St @ Deer Pk,LYNN,163,426,84,42.461119707493,-70.9811065692257
7385,Boston St @ Oakland Ave,LYNN,163,426,21,42.461161789658,-70.9881427836248
7595,Winter St @ Central St,SAUGUS,262,428,19,42.4612491885369,-71.009285358445
7472,Winter St @ Central St,SAUGUS,262,428,102,42.4613324240337,-71.009219215688
7447,Summer St @ Boston St,LYNN,163,426,83,42.4618051184156,-70.982302066989
7384,Boston St @ Winnepurkit Ave,LYNN,163,426,20,42.4618789178862,-70.986687238931
14748,Lynn Commuter Rail Busway,LYNN,163,426,103,42.4619103717207,-70.9459988304994
7383,Boston St @ Northside Ave,LYNN,163,426,19,42.462024569411,-70.9846889459068
16653,Market St @ Commuter Rail,LYNN,163,426,1,42.4620281932939,-70.9472857862704
16653,Market St @ Commuter Rail,LYNN,163,426,107,42.4620291932939,-70.9472857862704
7382,Summer St @ Boston St,LYNN,163,426,18,42.4620786583272,-70.9827445965583
4524,760 Western Ave,LYNN,163,424,15,42.4621965293148,-70.9662568130762
4487,743 Western Ave,LYNN,163,426,10,42.4623574763615,-70.9659853707755
4451,N Common St @ Western Ave,LYNN,163,426,9,42.462545091002,-70.9654033216087
4525,S Common St @ Elm St,LYNN,163,426,95,42.4626237486204,-70.9642965155433
6821,170 S Common St,LYNN,163,426,96,42.4626688328207,-70.9620549879729
4486,Western Ave @ Market Square,LYNN,163,434,52,42.4626934112853,-70.9654588433533
6822,S Common St @ Huss Ct,LYNN,163,426,97,42.4627764407254,-70.9602023873157
6230,Central St @ Jasper St,SAUGUS,262,428,103,42.4628291582521,-71.0095580853979
6773,Market St @ Andrew St,LYNN,163,426,102,42.4629345415172,-70.9489098950753
6823,S Common St @ Shepard St,LYNN,163,426,98,42.4630034425274,-70.9585534610309
6213,329 Central St opp Jasper St,SAUGUS,262,428,18,42.4630165703702,-71.0095978439315
4527,Western Ave @ Center St,LYNN,163,424,16,42.4632645136311,-70.9647498317315
6784,N Common St @ Holton Pl,LYNN,163,426,8,42.4633319984975,-70.9616756164094
6824,S Common St @ Blossom St,LYNN,163,426,99,42.4633498101275,-70.9559874383333
4895,Broad St @ Silsbee St,LYNN,163,448,58,42.4633773443549,-70.9399732402787
6825,50 S Common St,LYNN,163,426,100,42.4634853251563,-70.9549630215504
4894,Broad St opp Nahant St,LYNN,163,448,57,42.4635126793376,-70.938777124488
6783,N Common St @ Park St,LYNN,163,426,7,42.4635758918472,-70.9601804111537
6782,N Common St @ Whiting St,LYNN,163,426,6,42.4636121301788,-70.9588996281801
6669,Mt Vernon @ Exchange St,LYNN,163,426,106,42.4636379331743,-70.942963245798
6781,N Common St @ Baker St,LYNN,163,426,5,42.4636461439305,-70.9577222649612
6600,Union St @ Exchange St,LYNN,163,426,104,42.4637009524647,-70.9438384438564
6780,N Common St @ Hanover St,LYNN,163,426,4,42.4638118306717,-70.9552291723377
4893,Broad St @ Green St,LYNN,163,448,56,42.46390998287,-70.9364033342565
6674,Market St @ City Hall Sq,LYNN,163,426,2,42.4640884656788,-70.9509313537982
6212,Central St @ Columbus Ave,SAUGUS,262,428,17,42.4641304140567,-71.0098709014962
6827,S Common St @ Market St,LYNN,163,426,101,42.4641693730159,-70.9517870418388
6675,N Common St @ Franklin St,LYNN,163,426,3,42.464240528424,-70.9528424563972
4892,Lewis St @ Chestnut St,LYNN,163,448,55,42.4643182938611,-70.9344856412875
7478,Main St @ Vine St,SAUGUS,262,428,108,42.464388935199,-71.0186058498392
6208,Main St @ Vine St,SAUGUS,262,428,13,42.4643957635098,-71.0188710737664
7591,78 Main St,SAUGUS,262,428,14,42.4644052253466,-71.0170276889838
7477,Main St @ Newhall Ave,SAUGUS,262,428,107,42.4644078479923,-71.0168059544181
47526,Main St opp Kennedy Dr,SAUGUS,262,428,109,42.4645165585292,-71.0211459604406
6207,Main St @ Kennedy Dr,SAUGUS,262,428,12,42.4645423321145,-71.0213766200175
17591,56 Main St,SAUGUS,262,428,15,42.4645538710335,-71.0146765196768
4485,Western Ave  @ Mall St,LYNN,163,434,51,42.4645880486027,-70.96315356069
47527,Main St opp Pierce Memorial Dr,SAUGUS,262,428,110,42.4646819458788,-71.0223290282186
7474,Central St @ Hamilton St,SAUGUS,262,428,104,42.4647102442873,-71.0097854547468
7506,Main St opp Summer St,SAUGUS,262,428,16,42.464724307925,-71.0124020087007
6206,Main St @ Pierce Memorial Dr,SAUGUS,262,428,11,42.4647369145578,-71.0228577955689
7236,Silsbee St @ Union St,LYNN,163,426,105,42.4650279408516,-70.9422629256691
4528,Western Ave opp Barrett St,LYNN,163,424,17,42.4652253751952,-70.9623982456446
4891,Lewis St @ Lafayette Park,LYNN,163,448,54,42.4654176689816,-70.932803490289
4529,Western Ave @ Park St,LYNN,163,424,18,42.4657780150702,-70.9617388316393
4484,Western Ave @ Park St,LYNN,163,434,50,42.4659028046448,-70.9615877850025
4890,Lewis St @ Autumn St,LYNN,163,448,53,42.4659249932265,-70.9303911289732
7586,Main St @ Rt 1 Ramp,SAUGUS,262,428,10,42.4662875878622,-71.0270725561209
6830,Union St @ Silsbee St,LYNN,163,459,122,42.4663787096737,-70.9421913917034
4888,Lewis St @ Burrill Ave,LYNN,163,448,52,42.4665328047214,-70.9274755331125
4887,Lewis St. @ Wardwell Ave.,LYNN,163,448,51,42.4667835585523,-70.9262806266349
6831,Union St @ Smith St,LYNN,163,459,123,42.4668786324762,-70.9416419300287
7234,Union St @ Joyce St,LYNN,163,459,50,42.4669787760879,-70.9415285874617
4912,260 Humphrey St,SWAMPSCOTT,291,449,41,42.4671366312337,-70.9137298767896
7587,190 Main St,SAUGUS,262,428,9,42.4671384759599,-71.0272477418214
4530,Western Ave @ Brimblecom St,LYNN,163,424,19,42.4671478566253,-70.9600845013128
4483,Western Ave @ Congress St,LYNN,163,434,49,42.4671876054731,-70.9600339792557
7481,Opp 190 Main St,SAUGUS,262,428,111,42.4672066763177,-71.0272684828223
6832,Union St @ W Green St,LYNN,163,459,124,42.467402062909,-70.9407797873821
4916,Humphrey St @ Eastern Ave,SWAMPSCOTT,291,449,45,42.4674196439021,-70.9222204249519
4911,Humphrey St @ Greenwood Ave,SWAMPSCOTT,291,449,40,42.4677390397759,-70.9104427734379
4908,508 Humphrey St,SWAMPSCOTT,291,449,38,42.4677533810542,-70.9055711088094
4909,Humphrey St @ Cedar Hill Terr,SWAMPSCOTT,291,449,39,42.4677611825923,-70.9075323433658
4915,58 Humphrey St,SWAMPSCOTT,291,449,44,42.4678424717625,-70.9206043699202
4907,Humphrey St @ Millett Rd,SWAMPSCOTT,291,449,37,42.4679012914814,-70.9035947712996
82471,Russell St @ Cambridge St,WOBURN,347,354,11,42.4679149746985,-71.1785856351161
7233,Union St @ Union Ct,LYNN,163,459,49,42.4679508025427,-70.9391191343708
49927,Lexington St @ Russell St,WOBURN,347,354,70,42.4680073920662,-71.1784337340706
4913,193 Humphrey St,SWAMPSCOTT,291,449,42,42.4680499918293,-70.9169736284819
4886,New Ocean St  @ Oneida St,LYNN,163,448,50,42.4680901838655,-70.9239143224679
7232,Union St @ Shorey St,LYNN,163,459,48,42.4682806713291,-70.9384525534775
4906,Humphrey St @ Pleasant St,SWAMPSCOTT,291,449,36,42.4683424107424,-70.9007070459368
4914,Humphrey St @ Monument Ave,SWAMPSCOTT,291,449,43,42.4683547307808,-70.9184431439089
4531,Western Ave @ Franklin St,LYNN,163,424,20,42.468473010077,-70.9584694624616
7308,Western Ave @ Franklin St,LYNN,163,434,48,42.4686057628792,-70.9583086770537
7483,221 Main St,SAUGUS,262,428,112,42.4686117131693,-71.0281139387773
4905,Humphrey St opp Shelton Rd,SWAMPSCOTT,291,449,35,42.4687577528916,-70.8985689964752
6834,Union St @ Chestnut St,LYNN,163,459,126,42.4689821797878,-70.9370463876684
6141,Chestnut St @ Union St,LYNN,163,459,47,42.4691007946371,-70.9369614809688
4885,New Ocean St opp Rock Ave,SWAMPSCOTT,291,448,49,42.4692200726125,-70.9227294235019
49816,Lexington St @ Mayflower St,WOBURN,347,354,12,42.4694907030867,-71.1770822885276
7585,Main St opp Forest St,SAUGUS,262,428,8,42.4695614763374,-71.0300911656349
4904,Humphrey St @ Phillips Circle,SWAMPSCOTT,291,449,34,42.4695929408039,-70.8962369031755
4532,Western Ave @ Washington St,LYNN,163,424,21,42.4696943672975,-70.9569887049378
49926,177 Lexington St,WOBURN,347,354,69,42.4700544114146,-71.1765966868671
7583,288 Main St,SAUGUS,262,428,7,42.47022550764,-71.0315763120824
4903,Humphrey St opp Puritan Rd,SWAMPSCOTT,291,449,33,42.4705001852009,-70.8947854784735
1684,Cambridge Rd opp Revere Rd,WOBURN,347,354,71,42.4705712564914,-71.180183918288
6140,Essex St @ Fayette St,LYNN,163,459,46,42.4705834087655,-70.9368882506955
8247,Cambridge Rd @ Revere Rd,WOBURN,347,354,10,42.4707213907118,-71.1802041903762
7485,291Main St,SAUGUS,262,428,114,42.470815183169,-71.0325420841437
4883,Paradise Rd @ Burrill St,SWAMPSCOTT,291,448,48,42.4708888668866,-70.9213556816931
7246,Western Ave @ Lawton Ave,LYNN,163,424,22,42.4710905215607,-70.95529851897
7306,Western Ave @ Lawton Ave,LYNN,163,434,46,42.4712275236435,-70.9551333434204
6143,Essex St @ Chatham St,LYNN,163,459,128,42.4716731403783,-70.9347019429899
6139,Essex St @ Chatham St,LYNN,163,459,45,42.4717708239531,-70.9345086352927
7247,Western Ave @ Bellair St,LYNN,163,424,23,42.4718299318504,-70.9544060330459
7305,Western Ave @ Granite St,LYNN,163,434,45,42.4718829805837,-70.9543416264631
4882,Paradise Rd @ Berkshire St,SWAMPSCOTT,291,448,47,42.4720014042502,-70.9196018663924
7582,Main St @ Lynn Fells Pkwy,SAUGUS,262,428,6,42.4721044099432,-71.0349485452108
49817,Lexington St @ Totman Rd,WOBURN,347,354,13,42.4721540766285,-71.1747739404446
8246,113 Cambridge Rd opp Surrey Circle,WOBURN,347,354,9,42.4721754184974,-71.1803910773003
4902,Humphrey St @ Orchard Rd,SWAMPSCOTT,291,449,32,42.4723902879244,-70.8946585740029
7248,Western Ave @ Nichols Ave,LYNN,163,424,24,42.4724241781608,-70.953684627498
6138,Essex St @ Porter St,LYNN,163,459,44,42.4724363913421,-70.9331723918128
6144,Essex St opp Porter St,LYNN,163,459,129,42.4724747165532,-70.9330707699764
4881,Paradise Rd opp Andrew Rd,SWAMPSCOTT,291,448,46,42.4726828621944,-70.9185970009866
6137,141 Essex St,LYNN,163,459,43,42.4727439450783,-70.9322935077103
1685,Cambridge Rd @ Surrey Circle,WOBURN,347,354,72,42.4728633128265,-71.1805063497745
59817,Lexington St @ Willow St,WOBURN,347,354,14,42.4730775333577,-71.1727274733933
7495,Main St @ Carver St,SAUGUS,262,428,5,42.473123277711,-71.0371467519826
49924,Lexington St @ Willow St,WOBURN,347,354,68,42.4731684129624,-71.1725082663852
6136,Essex St @ Empire St,LYNN,163,459,42,42.4734712715129,-70.9305169975648
6145,Essex St @ Empire St,LYNN,163,459,130,42.4735122476887,-70.9304401825557
7249,Western Ave @ Bayview Ave,LYNN,163,424,25,42.4736530451919,-70.9523194687562
4880,Paradise Rd @ Ellis Rd,SWAMPSCOTT,291,448,45,42.4737108766755,-70.917075711184
7303,Western Ave opp Bayview Ave,LYNN,163,434,43,42.473846355314,-70.9521325861933
4901,Humphrey St @ Orchard Circle,SWAMPSCOTT,291,449,31,42.4739566538611,-70.8942555571307
49818,94 Lexington St,WOBURN,347,354,15,42.4740453680721,-71.1706016577123
7489,371 Main St,SAUGUS,262,428,117,42.4744001508808,-71.0384741204702
49923,81 Lexington St,WOBURN,347,354,67,42.4744879212574,-71.1696707516778
6146,Essex St @ Eastern Ave,LYNN,163,459,131,42.4745749862525,-70.928691003408
6135,Essex St @ Eastern Ave,LYNN,163,459,41,42.4746911111077,-70.9285026450065
7494,Main St opp Kingdom Way,SAUGUS,262,428,4,42.4747368656133,-71.0386102723635
4879,Paradise Rd @ Norfolk Ave,SWAMPSCOTT,291,448,44,42.474819372811,-70.9154499163986
7302,Western Ave opp Linden Terr,LYNN,163,434,42,42.4750228027618,-70.9509969850028
7250,Western Ave @ Linden Terr,LYNN,163,424,26,42.4750932256531,-70.9509302966183
7223,Eastern Ave @ Sheldon St,LYNN,163,424,40,42.4752160218405,-70.9292117152483
49820,28 Lexington St,WOBURN,347,354,16,42.4753266385194,-71.1673079983549
8245,81 Cambridge Rd opp Locust St,WOBURN,347,354,8,42.4754810266972,-71.1822205220713
6148,Essex St @ Essex Ave,SWAMPSCOTT,291,459,133,42.4756135804456,-70.9236333382194
6133,Essex St @ Cherry St,SWAMPSCOTT,291,459,39,42.4756628651903,-70.9253998180458
6134,13 Essex St,LYNN,163,459,40,42.4756929473492,-70.9265607795038
6149,Essex St @ Burrill St,SWAMPSCOTT,291,459,134,42.475781290827,-70.9219243594653
49921,Lexington St @ Cannon Rd,WOBURN,347,354,66,42.4758290171938,-71.1653889411805
16132,Essex St opp Burrill St,SWAMPSCOTT,291,459,38,42.4759048022197,-70.9216455998997
7251,Western Ave @ Rockingham St,LYNN,163,424,27,42.4759182134849,-70.9501489754031
4864,Humphrey St @ Salem St,SWAMPSCOTT,291,449,30,42.4759890066415,-70.8926287535606
4878,Paradise Rd @ Franklin Ave,SWAMPSCOTT,291,448,43,42.476072914047,-70.9133842906287
49821,20 Lexington St,WOBURN,347,354,17,42.4761031227994,-71.1646453919779
4865,Salem St @  Humphrey St,SWAMPSCOTT,291,448,30,42.4762118336505,-70.8925141142063
7222,294 Eastern Ave,LYNN,163,424,39,42.4762475986106,-70.9303454528249
6150,Essex St @ Elm Pl,SWAMPSCOTT,291,459,135,42.4763497768257,-70.9206182409368
50920,Lexington St @ Burlington St,WOBURN,347,354,65,42.4768039485942,-71.1629535020868
18244,Cambridge Rd @ Sylvanus Wood Ln,WOBURN,347,354,7,42.4768621269068,-71.1833499588
49920,Pleasant St @ Valley Rd,WOBURN,347,354,64,42.4768646496631,-71.1609041976373
49823,126 Pleasant St opp Valley Rd,WOBURN,347,354,19,42.4768800722073,-71.1611735687244
49822,Lexington St opp Burlington St,WOBURN,347,354,18,42.4769171205278,-71.1625300605294
6132,Essex St @ Burpee Rd,SWAMPSCOTT,291,459,37,42.476929005736,-70.9198830342469
4877,306 Paradise Rd opp Walker Rd,SWAMPSCOTT,291,448,42,42.4769719243852,-70.9100984072523
7490,Main St @ Scott Dr,SAUGUS,262,428,118,42.4770709835115,-71.0395497226588
7252,Western Ave @ Chestnut St,LYNN,163,424,28,42.4770881592085,-70.9490342844071
7300,Chestnut St @ Western Ave,LYNN,163,434,41,42.477225280223,-70.9490223709519
4866,Salem St @ Aycliffe Rd,SWAMPSCOTT,291,448,31,42.477732500594,-70.89386608316
7493,404 Main St,SAUGUS,262,428,3,42.4777993939314,-71.040053497097
49824,Pleasant St @ Arlington Rd,WOBURN,347,354,20,42.4778103922825,-71.1559379115131
7299,Chestnut St. @ Maple Street,LYNN,163,434,40,42.4779389872349,-70.950618918411
16131,Essex St @ Jackson Pk,SWAMPSCOTT,291,459,36,42.4780072781921,-70.9184165296212
4876,Paradise Rd @ Longwood Dr,SWAMPSCOTT,291,448,41,42.4780281113539,-70.9079642009089
7254,Chestnut St opp Rand St,LYNN,163,434,96,42.4784670560782,-70.9522503826269
7298,Chestnut St opp Pond St,LYNN,163,434,39,42.4785883988645,-70.952606869233
7220,Eastern Ave @ Lambert Ave,LYNN,163,424,38,42.4787570934587,-70.9331031055219
4533,Western Ave @ West Colony Rd,LYNN,163,424,29,42.4790689867554,-70.9471516964801
49917,Montvale Ave @ Main St,WOBURN,347,354,61,42.4790759316918,-71.1516671141204
7255,Chestnut St opp Allerton St,LYNN,163,434,97,42.4791008543418,-70.9538341098444
9125,Common St @ Woburn City Hall,WOBURN,347,354,21,42.479217066037,-71.151989394805
49826,Montvale Ave @ Prospect St,WOBURN,347,354,22,42.479237758039,-71.1501083504571
50916,Montvale Ave opp Prospect St,WOBURN,347,354,60,42.4792653258292,-71.1499231095429
7297,Chestnut St @ Allerton St,LYNN,163,434,38,42.4792867736034,-70.9540031458357
49918,Pleasant St @ Abbott St,WOBURN,347,354,62,42.4793296100479,-71.1533805938777
6131,262 Essex St,SWAMPSCOTT,291,459,35,42.479518582877,-70.9164612355355
14875,Paradise Rd @ Lou Rudolph Way,SWAMPSCOTT,291,448,40,42.4795605973956,-70.9053587602811
4868,Salem St @ Stanley Rd,SWAMPSCOTT,291,448,32,42.4795757197116,-70.8954825271652
49841,Montvale Ave @ Washington St,WOBURN,347,354,38,42.4796209592318,-71.1211070488011
49842,Montvale Ave @ I93 ramp,WOBURN,347,354,39,42.479680108424,-71.1171661559085
7219,460 Eastern Ave,LYNN,163,424,37,42.4797754204913,-70.934226945865
49901,Montvale Ave @ I93,WOBURN,347,354,44,42.4797926079196,-71.1171965503406
8244,Cambridge Rd @ S Bedford Rd,WOBURN,347,354,6,42.4798579277869,-71.185267370548
4534,Western Ave @ Tracy Ave,LYNN,163,424,30,42.4798999426454,-70.9463570828229
49839,Central St @ Montvale Ave,WOBURN,347,354,37,42.4799630414138,-71.1240847494042
4862,Humphrey St @ Stanley Rd,SWAMPSCOTT,291,448,29,42.4801217864959,-70.8899012197695
49916,60 Montvale Ave,WOBURN,347,354,59,42.4801430764123,-71.1480741620354
7296,Chestnut St @ Boston St,LYNN,163,434,37,42.4803438844365,-70.9551364292925
4875,Opp 383 Paradise Rd,SWAMPSCOTT,291,448,39,42.4805904251135,-70.9038117361229
6130,Essex St @ Stetson Ave,SWAMPSCOTT,291,459,34,42.4806026238574,-70.9152226510879
49827,Montvale Ave @ Fairmount St,WOBURN,347,354,23,42.4806660996256,-71.1470822497866
16901,Van De Graff Dr,BURLINGTON,48,354,1,42.4808910688031,-71.1994673033833
16901,Van De Graff Dr,BURLINGTON,48,354,79,42.4808920688031,-71.1994673033833
4535,Western Ave @ Chatham St,LYNN,163,424,31,42.481037646815,-70.9452796382634
7256,Broadway @ Carter Rd,LYNN,163,434,98,42.4810531346568,-70.9557281492288
7218,Eastern Ave @ Oakwood Ave,LYNN,163,424,36,42.4811164086692,-70.9360752863581
1688,Cambridge St @ Ray Ave,BURLINGTON,48,354,76,42.4811601541126,-71.1865899924591
4861,Humphrey St @ Crossman Ave,SWAMPSCOTT,291,448,28,42.4812726977545,-70.8895516649929
49903,42 Central St,WOBURN,347,354,46,42.4813500022335,-71.1235327475184
8243,Cambridge St opp Ray Ave,BURLINGTON,48,354,5,42.4814212908756,-71.1868207321728
49915,108 Montvale Ave,WOBURN,347,354,58,42.4814534677129,-71.1446173271094
4874,Paradise Rd @ Swampscott Mall,SWAMPSCOTT,291,448,38,42.4814727634246,-70.9027979082757
49828,Montvale Ave @ Eastern Ave,WOBURN,347,354,24,42.4814928943613,-71.1443129235229
7295,Broadway opp Virginia Terr,LYNN,163,434,36,42.4816626024217,-70.956205861307
14868,Salem St @ Tedesco Golf Course,SWAMPSCOTT,291,448,33,42.4816960810506,-70.8973591463652
16881,26 Cambridge St @ Cafe Escadrille,BURLINGTON,48,354,77,42.4819161398791,-71.1873338502243
6153,Essex St @ Eastman Ave,SWAMPSCOTT,291,459,138,42.482059534584,-70.9142296561372
14860,Humphrey St @ Winthrop Ave,MARBLEHEAD,168,448,27,42.4821442316032,-70.8891730422068
4873,500 Paradise Rd,SWAMPSCOTT,291,448,37,42.4821676766237,-70.9019660527358
4982,Bow St @ Montvale Ave,WOBURN,347,354,25,42.4822068790021,-71.140767793371
6129,Opp 399 Essex St,SWAMPSCOTT,291,459,33,42.4822174001665,-70.9140706464775
4536,Western Ave @ Lloyd Terr,LYNN,163,424,32,42.4824615338476,-70.9439216681112
7258,Broadway opp Hudson St,LYNN,163,434,100,42.4824786266583,-70.956863232847
7217,Eastern Ave @ Glenwood St,LYNN,163,424,35,42.4825311423998,-70.9381620869156
8242,Cambridge St @ Lincoln Knoll Ln,BURLINGTON,48,354,4,42.4825928605874,-71.1880841804458
4869,Opp 212 Salem St,SWAMPSCOTT,291,448,34,42.4826016160357,-70.8981144196912
7294,Broadway @ Hudson St,LYNN,163,434,35,42.4826262897454,-70.9570269357654
1689,Cambridge St opp Lincoln Knoll Ln,BURLINGTON,48,354,78,42.4827768048231,-71.1882971210112
6154,Essex St @ Alvin Rd,SWAMPSCOTT,291,459,139,42.4828151856973,-70.9122695449641
18253,Van De Graaff Dr @ Hyatt,BURLINGTON,48,354,2,42.4829755642388,-71.1965391882184
6128,Essex St opp Ryan Pl,SWAMPSCOTT,291,459,32,42.4830199794471,-70.9113110864097
49838,Central St @ Pine St,WOBURN,347,354,36,42.483235221479,-71.1228142663617
4860,Humphrey St @ West St,MARBLEHEAD,168,448,26,42.4834060641523,-70.8881975015952
7216,Waitt Ave @ Eastern Ave,LYNN,163,424,34,42.4835422543769,-70.9397211549866
7293,Broadway @ Springvale Ave,LYNN,163,434,34,42.4837108394751,-70.9584743474343
4870,Salem St @ Sunbeam Ln,SWAMPSCOTT,291,448,35,42.4837686797571,-70.8988375977119
4872,1000 Paradise Rd,SWAMPSCOTT,291,448,36,42.4837958767962,-70.9004332075162
7259,Broadway @ Magnolia Ave,LYNN,163,434,101,42.4838263958379,-70.9584213862167
6127,Essex St @ Shopping Center,SWAMPSCOTT,291,459,31,42.4838697552328,-70.9076470922845
7214,President St @ Western Ave,LYNN,163,424,33,42.4839830300549,-70.9424643416963
59837,Pine St opp Floyd St,WOBURN,347,354,35,42.4843297222917,-71.1243907670174
49905,Pine St @ Floyd St,WOBURN,347,354,48,42.484389265022,-71.1246575347315
4859,Humphrey St  @ Ruby Ave,MARBLEHEAD,168,448,25,42.4845580723887,-70.886914340606
7292,Broadway @ Richardson Rd,LYNN,163,434,33,42.4846135891028,-70.9597402721693
49906,Pine St @ Montvale Rd,WOBURN,347,354,49,42.484619220967,-71.1256303095602
49837,Pine St @ Orange St,WOBURN,347,354,34,42.4847002235364,-71.1259590873269
7260,Broadway opp Richardson Rd,LYNN,163,434,102,42.48477149831,-70.9597318674157
16126,1000 Loring Ave,SALEM,258,459,30,42.4850971290134,-70.9037166919624
16156,Opp 1000 Loring Ave,SALEM,258,459,142,42.4851063243405,-70.9036557874496
49829,45 Bow St,WOBURN,347,354,26,42.4852996007586,-71.1408365303455
6126,Loring Ave @ Vinnin St,SALEM,258,459,29,42.4853414389326,-70.9024423975762
8241,Cambridge St @ Wayside Rd,BURLINGTON,48,354,3,42.4855815390226,-71.1901261481114
7359,Lynnfield St @ Floyd Ave,LYNN,163,434,32,42.4857311367037,-70.9619638870883
49836,Pine St opp Felton St,WOBURN,347,354,33,42.4857381034744,-71.1279844845307
6157,Loring Ave @ Vinnin St,SALEM,258,459,143,42.4857712584005,-70.9017024411023
4858,Humphrey St @ Tufts St,MARBLEHEAD,168,448,24,42.4859359349854,-70.8852734269456
7321,Lynnfield St opp Severance St,LYNN,163,434,104,42.4863492936294,-70.9634422230644
4857,Humphrey St @ Clifton Ave,MARBLEHEAD,168,448,23,42.486424978521,-70.8844662638848
7358,Lynnfield St @ Severance St,LYNN,163,434,31,42.4864468433748,-70.9636378002834
49835,Pine St opp Dale St,WOBURN,347,354,32,42.4866089442949,-71.1288081739872
6125,Loring Ave @ Cedar Ave,SALEM,258,459,28,42.4869685608095,-70.9001759591551
4853,Humphrey St @ Palmer Rd,MARBLEHEAD,168,448,22,42.4871901329425,-70.8832843034049
7357,Lynnfield St @ Averill St,LYNN,163,434,30,42.4871921659308,-70.9646549293718
6158,Loring Ave @ Maple Ave,SALEM,258,459,144,42.4872104586406,-70.8999495786745
49830,Bow St @ Salem St,WOBURN,347,354,27,42.4872362311179,-71.140949293049
49831,Salem St @ Hilltop Terr,WOBURN,347,354,28,42.4873578016702,-71.1390784509703
49911,Salem St @ Sedgewick Pk,WOBURN,347,354,55,42.4873839544802,-71.1386642715886
4852,Humphrey St @ Charlotte Rd,MARBLEHEAD,168,448,21,42.4875983440452,-70.8826371040197
49832,Salem St @ Wood St,WOBURN,347,354,29,42.4876934351693,-71.1358532194052
7492,Main St @ Harmon Rd,SAUGUS,262,428,2,42.4878152104817,-71.0468147453859
49910,Salem St @ Wildwood Ave,WOBURN,347,354,54,42.4878502129657,-71.1354128759029
49834,23 Pine St opp Montvale Rd,WOBURN,347,354,31,42.487997478564,-71.1301676955444
7356,126 Lynnfield St,LYNN,163,434,29,42.4881606776538,-70.9655775877078
6159,Loring Ave @ Chandler Rd,SALEM,258,459,145,42.4883638812637,-70.8985468264855
6124,Loring Ave @ Intervale Rd,SALEM,258,459,27,42.4887283300082,-70.8981114971691
6160,Opp 494 Loring Ave,SALEM,258,459,146,42.4890186037278,-70.8977552520266
49909,6 Pine St opp Walnut Hill Pk,WOBURN,347,354,53,42.4890716878588,-71.132133056121
49833,Pine St @ Walnut Hill Pk,WOBURN,347,354,30,42.4890945640542,-71.1317202998962
4851,Humphrey St opp Glendale Rd,MARBLEHEAD,168,448,20,42.4892288952358,-70.8801306701472
7355,155 Lynnfield St,LYNN,163,434,28,42.4892778641278,-70.9679098619525
17354,Lynnfield St @ St Marys Cemetery,LYNN,163,434,27,42.4898017011118,-70.9690088489713
6123,446 Loring Ave,SALEM,258,459,26,42.4900083302554,-70.8965536789154
4850,Humphrey St opp Sevinor Rd,MARBLEHEAD,168,448,19,42.4904184482107,-70.8771776924196
6122,Loring Ave @ Riverview St,SALEM,258,459,25,42.4912157941432,-70.8950460955645
4849,Humphrey St @ Birch St,MARBLEHEAD,168,448,18,42.4912303410363,-70.8757129164809
7326,Lynnfield St opp Great Woods Rd,LYNN,163,434,107,42.4912400283381,-70.9717345010944
7354,Lynnfield St @ Great Woods Rd,LYNN,163,434,26,42.4913562171598,-70.9719186555638
8240,Cambridge St @ Burlington Mall Rd,BURLINGTON,48,352,14,42.491599529123,-71.1933028812195
6121,Loring Ave opp Leggs Hill Rd,SALEM,258,459,24,42.4920972920636,-70.8934013179391
6163,Loring Ave @ Leggs Hill Rd,SALEM,258,459,149,42.4921506422396,-70.8932745945167
4848,Humphrey St @ Laurel St,MARBLEHEAD,168,448,17,42.4921895427157,-70.873853367888
1692,76 Cambridge St,BURLINGTON,48,352,19,42.4923661606869,-71.1937292580407
7353,Lynnfield St @ Verdmont Ave,LYNN,163,434,25,42.4926658019462,-70.9718654859669
7327,Lynnfield St @ Kernwood Dr,LYNN,163,434,108,42.4928658669254,-70.9718072668211
41692,82 Cambridge St,BURLINGTON,48,352,20,42.4937324408225,-71.1942827491578
6164,Loring Ave @ Lincoln Rd,SALEM,258,459,150,42.4938335655088,-70.8929501091644
4847,Humphrey St @ Lafayette St,MARBLEHEAD,168,448,16,42.4938676424845,-70.8701991552373
18239,Cambridge St @ Arlington Rd,BURLINGTON,48,352,13,42.4938899901491,-71.1943412297264
6120,Loring Ave opp Lincoln Rd,SALEM,258,459,23,42.4939704003805,-70.893153694526
7328,Lynnfield St opp Trevett Ave,LYNN,163,434,109,42.4945112415285,-70.9709703805623
4846,Pleasant St @ Baldwin Rd,MARBLEHEAD,168,448,15,42.4945462192463,-70.8675802862226
7352,Lynnfield St @ Trevett Ave,LYNN,163,434,24,42.4947166313639,-70.970903600335
4845,Pleasant St @ Devereux Terr,MARBLEHEAD,168,448,14,42.4952021957236,-70.8645956927142
74910,Farm St @ Nahant St - Wakefield HS,WAKEFIELD,305,428,1,42.49553641993,-71.0522988839251
74910,Farm St @ Nahant St - Wakefield HS,WAKEFIELD,305,428,120,42.49553741993,-71.0522988839251
6119,Loring Ave @ Pickman Rd,SALEM,258,459,22,42.4956565289727,-70.8950744358962
6165,Loring Ave @ Grant Rd,SALEM,258,459,151,42.4959780201091,-70.8951131745746
4844,Pleasant St @ Maverick St,MARBLEHEAD,168,448,13,42.4962261522969,-70.8626398617759
8239,99 Cambridge St,BURLINGTON,48,352,12,42.4966576526103,-71.1943961744535
16118,Loring Ave @ Station Rd,SALEM,258,459,21,42.4973647815411,-70.8949654056159
4843,Pleasant St opp Gerry St,MARBLEHEAD,168,448,12,42.4975570652848,-70.860948313053
7330,Lynnfield St @ Woodale Rd,LYNN,163,434,110,42.4978052329409,-70.9710024628137
41693,Cambridge St @ Rita Ave,BURLINGTON,48,352,21,42.4978503416166,-71.194132243706
7350,Lynnfield St @ Allston St,LYNN,163,434,23,42.4978889361994,-70.9712065499865
6167,Loring Ave @ Sumner Rd,SALEM,258,459,153,42.4981913968442,-70.8949752512666
6118,Loring Ave @ Sumner Rd,SALEM,258,459,20,42.4983569670393,-70.8950837614741
7331,Lynnfield St opp Lebel Rd,LYNN,163,434,111,42.4986022789974,-70.9729810872674
7349,Lynnfield St @ Lebel Rd,LYNN,163,434,22,42.4986848432072,-70.9731902367261
8238,Cambridge St @ Anna Rd,BURLINGTON,48,352,11,42.4987390927897,-71.1940301903518
41694,Cambridge St @ Edwards Rd,BURLINGTON,48,352,22,42.499232673049,-71.194086197122
6168,Loring Ave opp Jefferson Ave,SALEM,258,459,154,42.4999104671223,-70.8958677286702
6117,Loring Ave @ Jefferson Ave,SALEM,258,459,19,42.5000625415303,-70.8959620184461
7332,Lynnfield St @ Harris Rd,LYNN,163,434,112,42.500099083356,-70.9759932085271
4841,Pleasant St @ Bessom St,MARBLEHEAD,168,448,11,42.5001639838294,-70.8588325553794
7348,Lynnfield St opp Harris Rd,LYNN,163,434,21,42.5002054936522,-70.9761906743824
8237,Cambridge St opp Birchcrest St,BURLINGTON,48,352,10,42.5006362297117,-71.194626975423
1693,Cambridge St @ Birchcrest St,BURLINGTON,48,352,23,42.5011809155886,-71.1948443627735
4840,Pleasant St @ Anderson St,MARBLEHEAD,168,448,10,42.5011818710656,-70.8575618806237
7333,475 Lynnfield St,LYNN,163,434,113,42.501336556488,-70.9779635442432
6116,Loring Ave opp Raymond Rd,SALEM,258,459,18,42.5017134425456,-70.8950329220562
1694,Cambridge St @ Cedarwood Ln,BURLINGTON,48,352,24,42.5017594792383,-71.1950831756065
8236,127 Cambridge St opp Cedarwood Ln,BURLINGTON,48,352,9,42.5018737343055,-71.1951282521202
17347,Lynnfield St @ Union Hospital,LYNN,163,434,20,42.5023773406899,-70.979438649685
6170,Loring Ave @ Rainbow Terr,SALEM,258,459,156,42.5026740878957,-70.8935988747306
6115,Loring Ave opp Rainbow Terr,SALEM,258,459,17,42.5027926269864,-70.8934179580832
4839,Pleasant St @ Spring St,MARBLEHEAD,168,448,9,42.5027995817617,-70.8555700825975
7346,Lynnfield St @ Dartmouth St,LYNN,163,434,19,42.5029501357052,-70.9800054417979
7335,Lynnfield St opp Stocker Ave,LYNN,163,434,115,42.5035542040455,-70.9803283921837
7345,Lynnfield St @ Gallo Rd,LYNN,163,434,18,42.5047092856464,-70.9810625898516
16170,Loring Ave @ Salem State University,SALEM,258,459,157,42.5047372967148,-70.8912491780818
7336,Lynnfield St opp Gallo Rd,LYNN,163,434,116,42.504771210611,-70.9811422734129
1695,Cambridge St @ Bedford St,BURLINGTON,48,352,25,42.5048763040224,-71.1958536436911
6114,Loring Ave @ Linden St,SALEM,258,459,16,42.504895246659,-70.8911352182309
4838,Elm St @ Creesy St,MARBLEHEAD,168,448,8,42.5050477555453,-70.854963206204
8235,Cambridge St @ Bedford St,BURLINGTON,48,352,8,42.5050612355007,-71.1958566872554
6171,Opp 352 Lafayette St,SALEM,258,459,158,42.5054661125652,-70.8907487415284
4835,Washington St @ State St,MARBLEHEAD,168,448,4,42.5055212148251,-70.8492183055946
4836,27 Mugford St,MARBLEHEAD,168,448,5,42.5055525810986,-70.8503730749118
6113,Lafayette St @ Loring Ave,SALEM,258,459,15,42.5056438414546,-70.8908231052247
4837,Elm St @ Harris St,MARBLEHEAD,168,448,7,42.5057041961495,-70.8527914942752
7337,Lynnfield St @ Tuscan Rd,LYNN,163,434,117,42.5059115132307,-70.9827721912763
7344,Lynnfield St @ Regina Rd,LYNN,163,434,17,42.5061119340889,-70.9830668081887
14836,Elm St @ Mugford St,MARBLEHEAD,168,448,6,42.5062322467563,-70.8519756099426
4834,Washington St @ Pearl St,MARBLEHEAD,168,448,3,42.5063029453289,-70.8482379498475
1696,Cambridge St @ Olympian Ave,BURLINGTON,48,352,26,42.5063462554579,-71.1957497953737
6112,Lafayette St @ Forest Ave,SALEM,258,459,14,42.5068724287304,-70.8910537052562
4807,7 Franklin St @ Fire House,MARBLEHEAD,168,448,1,42.5076723376061,-70.8453292031398
4832,Franklin St opp Fire House,MARBLEHEAD,168,448,2,42.5076982295433,-70.8454064306509
7338,715 Lynnfield St,LYNN,163,434,118,42.5078643934342,-70.9856299077258
7343,724 Lynnfield St,LYNN,163,434,16,42.5079786977092,-70.9857979697357
6111,Lafayette St @ Ocean Ave,SALEM,258,459,13,42.5081907140068,-70.8912941518158
7339,Lynnfield St @ Cobb Ln,LYNN,163,434,119,42.5090404244954,-70.9875349927773
7342,Lynnfield St @ Bradford Rd,LYNN,163,434,15,42.5091518453415,-70.9877424148816
6175,Lafayette St @ Willow Ave,SALEM,258,459,161,42.5095536021142,-70.8915508168973
6110,Lafayette St @ Laurel St,SALEM,258,459,12,42.5097321803747,-70.891584630672
8234,Cambridge St @ Church Ln,BURLINGTON,48,352,7,42.5097716964493,-71.1987919840944
1697,Cambridge St @ Winn St,BURLINGTON,48,352,27,42.5099956944661,-71.199197950713
7340,Lynnfield St opp Lookout Terr,LYNN,163,434,120,42.5101152635449,-70.9895420884635
7341,Lynnfield St @ Lookout Terr,LYNN,163,434,14,42.5102220172546,-70.9897305695427
8233,Cambridge St @ Terry Ave,BURLINGTON,48,352,6,42.5107020422641,-71.2005766009801
6176,Lafayette St @ Leach St,SALEM,258,459,162,42.5110328959916,-70.8918333446259
6109,Lafayette St @ Holly St,SALEM,258,459,11,42.5112166522264,-70.8918689974003
73411,Lynnfield St @ Salem St Goodwins Circle,LYNN,163,434,13,42.5117114003184,-70.9922086448794
4595,Lynnfield St opp Crestview Pk,PEABODY,229,434,12,42.5118544148649,-70.986825828894
4569,Lynnfield St @ Crestview Pk,PEABODY,229,434,122,42.5118879063274,-70.9870341808732
1698,Cambridge St @ Skilton Ln,BURLINGTON,48,352,29,42.5124580414173,-71.2020771404593
14594,Lynnfierld St @ Ralph Rd,PEABODY,229,434,123,42.5124690627076,-70.9827420506703
8232,Cambridge St opp Skilton Ln,BURLINGTON,48,352,5,42.5126158321207,-71.2021720352332
6108,Lafayette St @ Hancock St,SALEM,258,459,10,42.5127096148338,-70.8921465153514
4594,Lynnfield St opp Bartholomew St,PEABODY,229,434,11,42.5129515342098,-70.980764554824
6107,Lafayette St @ Gardner St,SALEM,258,459,9,42.5135663009234,-70.8923111510808
16177,Lafayette @ Leavitt St,SALEM,258,459,164,42.5144466022563,-70.8924692762153
1699,Cambridge St @ Pontos Ave,BURLINGTON,48,352,30,42.5149565186366,-71.2050330187595
6100,Leavitt St @ Congress St,SALEM,258,459,165,42.5150181466623,-70.8893366893281
8231,Cambridge St @ Great Pines Ave,BURLINGTON,48,352,4,42.5150896239912,-71.2053343554698
6106,Lafayette St @ Cedar St,SALEM,258,459,8,42.5151918103339,-70.8926151521483
14572,Lynnfield St @ Honey Ln,PEABODY,229,434,126,42.5159247554617,-70.971940433168
4593,259 Lynnfield St,PEABODY,229,434,10,42.5161947424045,-70.9743130961249
8230,Cambridge St opp Chestnut Ave,BURLINGTON,48,352,3,42.5164374855015,-71.207485586023
24940,149 Lynnfield St,PEABODY,229,434,9,42.5166057728415,-70.9590562921273
14940,79 Lynnfield St opp Norfolk Ave,PEABODY,229,434,8,42.5166728939856,-70.9510617151982
6104,Lafayette St @ Harbor St,SALEM,258,459,7,42.5174916638161,-70.8930297104991
16102,Congress St opp Shetland Pk,SALEM,258,459,6,42.5177869542036,-70.889355239171
4940,Washington St opp Granite St,PEABODY,229,434,7,42.5182918048699,-70.9428040366785
8229,Cambridge St opp Wilmington Rd,BURLINGTON,48,352,2,42.5183601937541,-71.2099801595498
6103,New Derby St opp Klop Alley,SALEM,258,459,3,42.5194910902852,-70.8940957943322
17150,Derby St @ Lafayette St,SALEM,258,459,168,42.519535223728,-70.8932327386868
7153,Derby St @ Lafayette St,SALEM,258,459,4,42.5195758316062,-70.8930970159644
6902,Chestnut Ave @ Cambridge St,BURLINGTON,48,352,1,42.5196575236254,-71.2116311065775
6902,Chestnut Ave @ Cambridge St,BURLINGTON,48,352,32,42.5196585236254,-71.2116311065775
4562,Washington St @ New Derby St,SALEM,258,459,170,42.5198974016931,-70.8954014714816
4939,Washington St @ Allens Ln,PEABODY,229,434,6,42.5200656789944,-70.9391087538676
4925,Washington St @ Hingston St,PEABODY,229,434,128,42.520187852223,-70.9388327957871
4937,Washington St @ Lowe St,PEABODY,229,434,3,42.5202997248933,-70.9306637996263
4926,Washington St @ Bresnahan St,PEABODY,229,434,130,42.5202997339449,-70.9308496288603
7154,Congress St @ Derby St,SALEM,258,459,5,42.5205174351021,-70.8900551301829
7155,Congress St @ Derby St,SALEM,258,459,167,42.5205873039026,-70.8900774441566
14937,Washington St opp Dustin St,PEABODY,229,434,4,42.5208120029137,-70.9338007696634
14925,Washington St @ Blaney Ave,PEABODY,229,434,129,42.5208492045278,-70.9348105874518
4938,Washington St opp Blaney St,PEABODY,229,434,5,42.5208605984959,-70.9351461089486
14936,Washington St @ Lincoln Pl,PEABODY,229,434,2,42.5211879187356,-70.9265249481041
4927,Washington St @ Aborn St,PEABODY,229,434,131,42.5212892800122,-70.9262018951151
4453,North St opp Lynde St,SALEM,258,459,2,42.5225938716808,-70.8987779407332
4563,Washington St @ Federal St,SALEM,258,459,171,42.523142278424,-70.8958484232809
4928,Washington St @ Main St,PEABODY,229,434,132,42.5234579609663,-70.9236994122875
4936,Washington St @ Main St,PEABODY,229,434,1,42.5238617531476,-70.9233297381805
37150,Salem Commuter Rail Station,SALEM,258,459,1,42.5244707315618,-70.8960804161466
37150,Salem Commuter Rail Station,SALEM,258,459,172,42.5244717315618,-70.8960804161466
