RecordID,STOP_ID,STOP_NAME,TOWN,TOWN_ID,ROUTE,SEQUENCE,LATITUDE,LONGITUDE
55,114,Causeway St. @ North Station,BOSTON,35,4,1,42.365547,-71.061216
56,30203,Congress St opp Hanover St,BOSTON,35,4,2,42.361396,-71.05767
57,6547,Devonshire St @ State St,BOSTON,35,4,3,42.358585,-71.057257
58,16551,Congress St @ Franklin St,BOSTON,35,4,4,42.355534,-71.055548
59,221,Atlantic Ave. @ Congress St.,BOSTON,35,4,5,42.353837,-71.053236
60,21511,Sleeper St @ Seaport Blvd,BOSTON,35,4,6,42.353236,-71.048352
61,215,Northern Ave opp Federal Courthouse,BOSTON,35,4,7,42.353489,-71.047071
62,242,Seaport Blvd @ Seaport Hotel,BOSTON,35,4,8,42.349604,-71.040867
63,247,Northern Ave @ Harbor St,BOSTON,35,4,9,42.346678,-71.035244
64,30249,Northern Ave @ Tide St,BOSTON,35,4,10,42.345137,-71.031929
65,30249,Northern Ave @ Tide St,BOSTON,35,4,11,42.345137,-71.031929
66,30256,Dry Dock Ave @ Harbor St,BOSTON,35,4,12,42.344625,-71.03738
67,210,Summer St @ Dry Dock Ave,BOSTON,35,4,13,42.34435,-71.039039
68,212,Summer St @ D St,BOSTON,35,4,14,42.346358,-71.042237
69,890,Summer St @ WTC Ave,BOSTON,35,4,15,42.34738,-71.044134
70,891,Summer St opp Melcher St,BOSTON,35,4,16,42.350514,-71.050883
71,892,Summer St @ Dorchester Ave,BOSTON,35,4,17,42.3515,-71.052999
72,221,Atlantic Ave. @ Congress St.,BOSTON,35,4,18,42.353837,-71.053236
73,222,Atlantic Ave @ Seaport Blvd.,BOSTON,35,4,19,42.354908,-71.051224
74,223,Atlantic Ave @ Rowes Wharf,BOSTON,35,4,20,42.356274,-71.050803
75,30233,Atlantic Ave @ Milk St,BOSTON,35,4,21,42.35865,-71.051551
76,224,Atlantic Ave @ State St-Marriot Hotel,BOSTON,35,4,22,42.359544,-71.051796
77,225,Atlantic Ave @ Commercial Wharf,BOSTON,35,4,23,42.362174,-71.051101
78,226,Commercial St @ Fleet St,BOSTON,35,4,24,42.364076,-71.051081
79,230,Commercial St. @ Hanover St.,BOSTON,35,4,25,42.367136,-71.052381
80,231,Commercial St. opp. Hull St.,BOSTON,35,4,26,42.367812,-71.057304
81,114,Causeway St. @ North Station,BOSTON,35,4,27,42.365548,-71.061216
458,33,City Point Bus Terminal,BOSTON,35,9,1,42.3385,-71.031902
459,10033,E 1st St @ O St,BOSTON,35,9,2,42.338237,-71.029438
460,34,P St @ E 2nd St,BOSTON,35,9,3,42.337523,-71.027238
461,35,P St @ E Broadway,BOSTON,35,9,4,42.335827,-71.027187
462,895,E Broadway @ N St,BOSTON,35,9,5,42.335694,-71.031435
463,896,E Broadway @ M St,BOSTON,35,9,6,42.33567,-71.033181
464,41,E Broadway @ L St,BOSTON,35,9,7,42.335625,-71.035622
465,42,E Broadway @ K St,BOSTON,35,9,8,42.33559,-71.037311
466,43,E Broadway @ I St,BOSTON,35,9,9,42.335557,-71.03969
467,44,E Broadway @ H St,BOSTON,35,9,10,42.335527,-71.041745
468,45,E Broadway @ G St,BOSTON,35,9,11,42.335481,-71.044151
469,158,442 W Broadway,BOSTON,35,9,12,42.336159,-71.046769
470,159,W Broadway @ F St,BOSTON,35,9,13,42.3369,-71.047897
471,160,W Broadway @ E St,BOSTON,35,9,14,42.337895,-71.049436
472,161,W Broadway @ D St,BOSTON,35,9,15,42.338905,-71.051007
473,162,W Broadway @ C St,BOSTON,35,9,16,42.33993,-71.052592
474,163,W Broadway @ B St,BOSTON,35,9,17,42.340879,-71.054062
475,150,Broadway Station - Red Line,BOSTON,35,9,18,42.342652,-71.057078
476,36538,E Berkeley St @ Harrison Ave,BOSTON,35,9,19,42.343466,-71.064281
477,36541,E Berkeley St @ Washington St,BOSTON,35,9,20,42.343903,-71.0658
478,36539,E Berkeley @ Tremont St,BOSTON,35,9,21,42.345228,-71.069728
479,36540,Berkeley St @ Chandler St,BOSTON,35,9,22,42.346837,-71.070897
480,171,Berkeley St @ Columbus Ave,BOSTON,35,9,23,42.348548,-71.071747
481,173,Saint James Ave @ Clarendon St,BOSTON,35,9,24,42.349901,-71.074633
482,178,Saint James Ave @ Dartmouth St,BOSTON,35,9,25,42.349337,-71.076824
483,179,Ring Rd @ Huntington Ave,BOSTON,35,9,26,42.347577,-71.080012
484,174,Ring Rd @ Boylston St,BOSTON,35,9,27,42.348766,-71.080606
485,175,Boylston St @ Dartmouth St,BOSTON,35,9,28,42.350055,-71.077446
486,175,Boylston St @ Dartmouth St,BOSTON,35,9,29,42.350055,-71.077446
487,143,Boylston St @ Clarendon St,BOSTON,35,9,30,42.350646,-71.075321
488,144,Boylston St @ Berkeley St,BOSTON,35,9,31,42.351213,-71.073187
489,145,Arlington St @ Saint James Ave,BOSTON,35,9,32,42.351131,-71.070323
490,146,Arlington St @ Isabella St,BOSTON,35,9,33,42.348817,-71.069468
491,147,Herald St @ Tremont St,BOSTON,35,9,34,42.347429,-71.068414
492,148,Herald St @ Washington St,BOSTON,35,9,35,42.346631,-71.064696
493,11481,Herald St @ Harrison Ave,BOSTON,35,9,36,42.346363,-71.063339
494,151,W Broadway @ Broadway Station,BOSTON,35,9,37,42.342691,-71.056996
495,152,W Broadway @ A St,BOSTON,35,9,38,42.341723,-71.05536
496,153,W Broadway @ B St,BOSTON,35,9,39,42.340671,-71.053736
497,11532,W Broadway @ Linsky Barry Ct,BOSTON,35,9,40,42.339709,-71.052242
498,155,W Broadway @ E St,BOSTON,35,9,41,42.337689,-71.049118
499,156,W Broadway @ F St,BOSTON,35,9,42,42.3367,-71.047589
500,157,W Broadway @ Dorchester St,BOSTON,35,9,43,42.335518,-71.045795
501,21,E Broadway @ G St,BOSTON,35,9,44,42.335476,-71.044403
502,22,E Broadway @ H St,BOSTON,35,9,45,42.335527,-71.041745
503,23,E Broadway @ I St,BOSTON,35,9,46,42.335552,-71.040123
504,24,E Broadway @ K St,BOSTON,35,9,47,42.335586,-71.037554
505,25,E Broadway @ L St,BOSTON,35,9,48,42.335625,-71.035622
506,26,E Broadway @ M St,BOSTON,35,9,49,42.33567,-71.033181
507,27,E Broadway @ N St,BOSTON,35,9,50,42.335699,-71.031091
508,28,E Broadway @ O St,BOSTON,35,9,51,42.335732,-71.029038
509,29,E Broadway @ P St,BOSTON,35,9,52,42.335761,-71.027308
510,30,E Broadway @ Farragut Rd,BOSTON,35,9,53,42.335799,-71.025195
511,32,Farragut Rd opp E 2nd St,BOSTON,35,9,54,42.337619,-71.025115
512,10031,E 1st St @ P St,BOSTON,35,9,55,42.338277,-71.027126
513,10032,E 1st St opp O St,BOSTON,35,9,56,42.33824,-71.0292
514,33,City Point Bus Terminal,BOSTON,35,9,57,42.338501,-71.031902
16336,4807,7 Franklin St @ Fire House,MARBLEHEAD,168,448,1,42.507672,-70.845329
16337,4832,Franklin St opp Fire House,MARBLEHEAD,168,448,2,42.507698,-70.845406
16338,4834,Washington St @ Pearl St,MARBLEHEAD,168,448,3,42.506303,-70.848238
16339,4835,Washington St @ State St,MARBLEHEAD,168,448,4,42.505521,-70.849218
16340,4836,27 Mugford St,MARBLEHEAD,168,448,5,42.505553,-70.850373
16341,14836,Elm St @ Mugford St,MARBLEHEAD,168,448,6,42.506232,-70.851976
16342,4837,Elm St @ Harris St,MARBLEHEAD,168,448,7,42.505704,-70.852791
16343,4838,Elm St @ Creesy St,MARBLEHEAD,168,448,8,42.505048,-70.854963
16344,4839,Pleasant St @ Spring St,MARBLEHEAD,168,448,9,42.5028,-70.85557
16345,4840,Pleasant St @ Anderson St,MARBLEHEAD,168,448,10,42.501182,-70.857562
16346,4841,Pleasant St @ Bessom St,MARBLEHEAD,168,448,11,42.500164,-70.858833
16347,4843,Pleasant St opp Gerry St,MARBLEHEAD,168,448,12,42.497557,-70.860948
16348,4844,Pleasant St @ Maverick St,MARBLEHEAD,168,448,13,42.496226,-70.86264
16349,4845,Pleasant St @ Devereux Terr,MARBLEHEAD,168,448,14,42.495202,-70.864596
16350,4846,Pleasant St @ Baldwin Rd,MARBLEHEAD,168,448,15,42.494546,-70.86758
16351,4847,Humphrey St @ Lafayette St,MARBLEHEAD,168,448,16,42.493868,-70.870199
16352,4848,Humphrey St @ Laurel St,MARBLEHEAD,168,448,17,42.49219,-70.873853
16353,4849,Humphrey St @ Birch St,MARBLEHEAD,168,448,18,42.49123,-70.875713
16354,4850,Humphrey St opp Sevinor Rd,MARBLEHEAD,168,448,19,42.490418,-70.877178
16355,4851,Humphrey St opp Glendale Rd,MARBLEHEAD,168,448,20,42.489229,-70.880131
16356,4852,Humphrey St @ Charlotte Rd,MARBLEHEAD,168,448,21,42.487598,-70.882637
16357,4853,Humphrey St @ Palmer Rd,MARBLEHEAD,168,448,22,42.48719,-70.883284
16358,4857,Humphrey St @ Clifton Ave,MARBLEHEAD,168,448,23,42.486425,-70.884466
16359,4858,Humphrey St @ Tufts St,MARBLEHEAD,168,448,24,42.485936,-70.885273
16360,4859,Humphrey St  @ Ruby Ave,MARBLEHEAD,168,448,25,42.484558,-70.886914
16361,4860,Humphrey St @ West St,MARBLEHEAD,168,448,26,42.483406,-70.888198
16362,14860,Humphrey St @ Winthrop Ave,MARBLEHEAD,168,448,27,42.482144,-70.889173
16363,4861,Humphrey St @ Crossman Ave,SWAMPSCOTT,291,448,28,42.481273,-70.889552
16364,4862,Humphrey St @ Stanley Rd,SWAMPSCOTT,291,448,29,42.480122,-70.889901
16365,4865,Salem St @  Humphrey St,SWAMPSCOTT,291,448,30,42.476212,-70.892514
16366,4866,Salem St @ Aycliffe Rd,SWAMPSCOTT,291,448,31,42.477733,-70.893866
16367,4868,Salem St @ Stanley Rd,SWAMPSCOTT,291,448,32,42.479576,-70.895483
16368,14868,Salem St @ Tedesco Golf Course,SWAMPSCOTT,291,448,33,42.481696,-70.897359
16369,4869,Opp 212 Salem St,SWAMPSCOTT,291,448,34,42.482602,-70.898114
16370,4870,Salem St @ Sunbeam Ln,SWAMPSCOTT,291,448,35,42.483769,-70.898838
16371,4872,1000 Paradise Rd,SWAMPSCOTT,291,448,36,42.483796,-70.900433
16372,4873,500 Paradise Rd,SWAMPSCOTT,291,448,37,42.482168,-70.901966
16373,4874,Paradise Rd @ Swampscott Mall,SWAMPSCOTT,291,448,38,42.481473,-70.902798
16374,4875,Opp 383 Paradise Rd,SWAMPSCOTT,291,448,39,42.48059,-70.903812
16375,14875,Paradise Rd @ Lou Rudolph Way,SWAMPSCOTT,291,448,40,42.479561,-70.905359
16376,4876,Paradise Rd @ Longwood Dr,SWAMPSCOTT,291,448,41,42.478028,-70.907964
16377,4877,306 Paradise Rd opp Walker Rd,SWAMPSCOTT,291,448,42,42.476972,-70.910098
16378,4878,Paradise Rd @ Franklin Ave,SWAMPSCOTT,291,448,43,42.476073,-70.913384
16379,4879,Paradise Rd @ Norfolk Ave,SWAMPSCOTT,291,448,44,42.474819,-70.91545
16380,4880,Paradise Rd @ Ellis Rd,SWAMPSCOTT,291,448,45,42.473711,-70.917076
16381,4881,Paradise Rd opp Andrew Rd,SWAMPSCOTT,291,448,46,42.472683,-70.918597
16382,4882,Paradise Rd @ Berkshire St,SWAMPSCOTT,291,448,47,42.472001,-70.919602
16383,4883,Paradise Rd @ Burrill St,SWAMPSCOTT,291,448,48,42.470889,-70.921356
16384,4885,New Ocean St opp Rock Ave,SWAMPSCOTT,291,448,49,42.46922,-70.922729
16385,4886,New Ocean St  @ Oneida St,LYNN,163,448,50,42.46809,-70.923914
16386,4887,Lewis St. @ Wardwell Ave.,LYNN,163,448,51,42.466784,-70.926281
16387,4888,Lewis St @ Burrill Ave,LYNN,163,448,52,42.466533,-70.927476
16388,4890,Lewis St @ Autumn St,LYNN,163,448,53,42.465925,-70.930391
16389,4891,Lewis St @ Lafayette Park,LYNN,163,448,54,42.465418,-70.932803
16390,4892,Lewis St @ Chestnut St,LYNN,163,448,55,42.464318,-70.934486
16391,4893,Broad St @ Green St,LYNN,163,448,56,42.46391,-70.936403
16392,4894,Broad St opp Nahant St,LYNN,163,448,57,42.463513,-70.938777
16393,4895,Broad St @ Silsbee St,LYNN,163,448,58,42.463377,-70.939973
16394,4716,N Shore Rd opp Wonderland Station,REVERE,248,448,59,42.413257,-70.993014
16395,7094,Terminal C - Departures Level,BOSTON,35,448,60,42.366624,-71.017217
16396,242,Seaport Blvd @ Seaport Hotel,BOSTON,35,448,61,42.349604,-71.040867
16397,11218,Congress St @ A St,BOSTON,35,448,62,42.350374,-71.048494
16398,218,Congress St @ Sleeper St,BOSTON,35,448,63,42.351564,-71.050356
16399,892,Summer St @ Dorchester Ave,BOSTON,35,448,64,42.3515,-71.052999
16400,6535,Franklin St @ Devonshire St,BOSTON,35,448,65,42.35548,-71.057247
16401,16535,Otis St @ Summer St,BOSTON,35,448,66,42.35422,-71.05853
16553,4807,7 Franklin St @ Fire House,MARBLEHEAD,168,449,1,42.507672,-70.845329
16554,4832,Franklin St opp Fire House,MARBLEHEAD,168,449,2,42.507698,-70.845406
16555,4834,Washington St @ Pearl St,MARBLEHEAD,168,449,3,42.506303,-70.848238
16556,4835,Washington St @ State St,MARBLEHEAD,168,449,4,42.505521,-70.849218
16557,4836,27 Mugford St,MARBLEHEAD,168,449,5,42.505553,-70.850373
16558,14836,Elm St @ Mugford St,MARBLEHEAD,168,449,6,42.506232,-70.851976
16559,4837,Elm St @ Harris St,MARBLEHEAD,168,449,7,42.505704,-70.852791
16560,4838,Elm St @ Creesy St,MARBLEHEAD,168,449,8,42.505048,-70.854963
16561,4839,Pleasant St @ Spring St,MARBLEHEAD,168,449,9,42.5028,-70.85557
16562,4840,Pleasant St @ Anderson St,MARBLEHEAD,168,449,10,42.501182,-70.857562
16563,4841,Pleasant St @ Bessom St,MARBLEHEAD,168,449,11,42.500164,-70.858833
16564,4843,Pleasant St opp Gerry St,MARBLEHEAD,168,449,12,42.497557,-70.860948
16565,4844,Pleasant St @ Maverick St,MARBLEHEAD,168,449,13,42.496226,-70.86264
16566,4845,Pleasant St @ Devereux Terr,MARBLEHEAD,168,449,14,42.495202,-70.864596
16567,4846,Pleasant St @ Baldwin Rd,MARBLEHEAD,168,449,15,42.494546,-70.86758
16568,4847,Humphrey St @ Lafayette St,MARBLEHEAD,168,449,16,42.493868,-70.870199
16569,4848,Humphrey St @ Laurel St,MARBLEHEAD,168,449,17,42.49219,-70.873853
16570,4849,Humphrey St @ Birch St,MARBLEHEAD,168,449,18,42.49123,-70.875713
16571,4850,Humphrey St opp Sevinor Rd,MARBLEHEAD,168,449,19,42.490418,-70.877178
16572,4851,Humphrey St opp Glendale Rd,MARBLEHEAD,168,449,20,42.489229,-70.880131
16573,4852,Humphrey St @ Charlotte Rd,MARBLEHEAD,168,449,21,42.487598,-70.882637
16574,4853,Humphrey St @ Palmer Rd,MARBLEHEAD,168,449,22,42.48719,-70.883284
16575,4857,Humphrey St @ Clifton Ave,MARBLEHEAD,168,449,23,42.486425,-70.884466
16576,4858,Humphrey St @ Tufts St,MARBLEHEAD,168,449,24,42.485936,-70.885273
16577,4859,Humphrey St  @ Ruby Ave,MARBLEHEAD,168,449,25,42.484558,-70.886914
16578,4860,Humphrey St @ West St,MARBLEHEAD,168,449,26,42.483406,-70.888198
16579,14860,Humphrey St @ Winthrop Ave,MARBLEHEAD,168,449,27,42.482144,-70.889173
16580,4861,Humphrey St @ Crossman Ave,SWAMPSCOTT,291,449,28,42.481273,-70.889552
16581,4862,Humphrey St @ Stanley Rd,SWAMPSCOTT,291,449,29,42.480122,-70.889901
16582,4864,Humphrey St @ Salem St,SWAMPSCOTT,291,449,30,42.475989,-70.892629
16583,4901,Humphrey St @ Orchard Circle,SWAMPSCOTT,291,449,31,42.473957,-70.894256
16584,4902,Humphrey St @ Orchard Rd,SWAMPSCOTT,291,449,32,42.47239,-70.894659
16585,4903,Humphrey St opp Puritan Rd,SWAMPSCOTT,291,449,33,42.4705,-70.894785
16586,4904,Humphrey St @ Phillips Circle,SWAMPSCOTT,291,449,34,42.469593,-70.896237
16587,4905,Humphrey St opp Shelton Rd,SWAMPSCOTT,291,449,35,42.468758,-70.898569
16588,4906,Humphrey St @ Pleasant St,SWAMPSCOTT,291,449,36,42.468342,-70.900707
16589,4907,Humphrey St @ Millett Rd,SWAMPSCOTT,291,449,37,42.467901,-70.903595
16590,4908,508 Humphrey St,SWAMPSCOTT,291,449,38,42.467753,-70.905571
16591,4909,Humphrey St @ Cedar Hill Terr,SWAMPSCOTT,291,449,39,42.467761,-70.907532
16592,4911,Humphrey St @ Greenwood Ave,SWAMPSCOTT,291,449,40,42.467739,-70.910443
16593,4912,260 Humphrey St,SWAMPSCOTT,291,449,41,42.467137,-70.91373
16594,4913,193 Humphrey St,SWAMPSCOTT,291,449,42,42.46805,-70.916974
16595,4914,Humphrey St @ Monument Ave,SWAMPSCOTT,291,449,43,42.468355,-70.918443
16596,4915,58 Humphrey St,SWAMPSCOTT,291,449,44,42.467842,-70.920604
16597,4916,Humphrey St @ Eastern Ave,SWAMPSCOTT,291,449,45,42.46742,-70.92222
16598,4886,New Ocean St  @ Oneida St,LYNN,163,449,46,42.46809,-70.923914
16599,4887,Lewis St. @ Wardwell Ave.,LYNN,163,449,47,42.466784,-70.926281
16600,4888,Lewis St @ Burrill Ave,LYNN,163,449,48,42.466533,-70.927476
16601,4890,Lewis St @ Autumn St,LYNN,163,449,49,42.465925,-70.930391
16602,4891,Lewis St @ Lafayette Park,LYNN,163,449,50,42.465418,-70.932803
16603,4892,Lewis St @ Chestnut St,LYNN,163,449,51,42.464318,-70.934486
16604,4893,Broad St @ Green St,LYNN,163,449,52,42.46391,-70.936403
16605,4894,Broad St opp Nahant St,LYNN,163,449,53,42.463513,-70.938777
16606,4895,Broad St @ Silsbee St,LYNN,163,449,54,42.463377,-70.939973
16607,4716,N Shore Rd opp Wonderland Station,REVERE,248,449,55,42.413257,-70.993014
16608,7094,Terminal C - Departures Level,BOSTON,35,449,56,42.366624,-71.017217
16609,242,Seaport Blvd @ Seaport Hotel,BOSTON,35,449,57,42.349604,-71.040867
16610,11218,Congress St @ A St,BOSTON,35,449,58,42.350374,-71.048494
16611,218,Congress St @ Sleeper St,BOSTON,35,449,59,42.351564,-71.050356
16612,892,Summer St @ Dorchester Ave,BOSTON,35,449,60,42.3515,-71.052999
16613,6535,Franklin St @ Devonshire St,BOSTON,35,449,61,42.35548,-71.057247
16614,16535,Otis St @ Summer St,BOSTON,35,449,62,42.35422,-71.05853
16888,37150,Salem Commuter Rail Station,SALEM,258,459,1,42.524471,-70.89608
16889,4453,North St opp Lynde St,SALEM,258,459,2,42.522594,-70.898778
16890,6103,New Derby St opp Klop Alley,SALEM,258,459,3,42.519491,-70.894096
16891,7153,Derby St @ Lafayette St,SALEM,258,459,4,42.519576,-70.893097
16892,7154,Congress St @ Derby St,SALEM,258,459,5,42.520517,-70.890055
16893,16102,Congress St opp Shetland Pk,SALEM,258,459,6,42.517787,-70.889355
16894,6104,Lafayette St @ Harbor St,SALEM,258,459,7,42.517492,-70.89303
16895,6106,Lafayette St @ Cedar St,SALEM,258,459,8,42.515192,-70.892615
16896,6107,Lafayette St @ Gardner St,SALEM,258,459,9,42.513566,-70.892311
16897,6108,Lafayette St @ Hancock St,SALEM,258,459,10,42.51271,-70.892147
16898,6109,Lafayette St @ Holly St,SALEM,258,459,11,42.511217,-70.891869
16899,6110,Lafayette St @ Laurel St,SALEM,258,459,12,42.509732,-70.891585
16900,6111,Lafayette St @ Ocean Ave,SALEM,258,459,13,42.508191,-70.891294
16901,6112,Lafayette St @ Forest Ave,SALEM,258,459,14,42.506872,-70.891054
16902,6113,Lafayette St @ Loring Ave,SALEM,258,459,15,42.505644,-70.890823
16903,6114,Loring Ave @ Linden St,SALEM,258,459,16,42.504895,-70.891135
16904,6115,Loring Ave opp Rainbow Terr,SALEM,258,459,17,42.502793,-70.893418
16905,6116,Loring Ave opp Raymond Rd,SALEM,258,459,18,42.501713,-70.895033
16906,6117,Loring Ave @ Jefferson Ave,SALEM,258,459,19,42.500063,-70.895962
16907,6118,Loring Ave @ Sumner Rd,SALEM,258,459,20,42.498357,-70.895084
16908,16118,Loring Ave @ Station Rd,SALEM,258,459,21,42.497365,-70.894965
16909,6119,Loring Ave @ Pickman Rd,SALEM,258,459,22,42.495657,-70.895074
16910,6120,Loring Ave opp Lincoln Rd,SALEM,258,459,23,42.49397,-70.893154
16911,6121,Loring Ave opp Leggs Hill Rd,SALEM,258,459,24,42.492097,-70.893401
16912,6122,Loring Ave @ Riverview St,SALEM,258,459,25,42.491216,-70.895046
16913,6123,446 Loring Ave,SALEM,258,459,26,42.490008,-70.896554
16914,6124,Loring Ave @ Intervale Rd,SALEM,258,459,27,42.488728,-70.898111
16915,6125,Loring Ave @ Cedar Ave,SALEM,258,459,28,42.486969,-70.900176
16916,6126,Loring Ave @ Vinnin St,SALEM,258,459,29,42.485341,-70.902442
16917,16126,1000 Loring Ave,SALEM,258,459,30,42.485097,-70.903717
16918,6127,Essex St @ Shopping Center,SWAMPSCOTT,291,459,31,42.48387,-70.907647
16919,6128,Essex St opp Ryan Pl,SWAMPSCOTT,291,459,32,42.48302,-70.911311
16920,6129,Opp 399 Essex St,SWAMPSCOTT,291,459,33,42.482217,-70.914071
16921,6130,Essex St @ Stetson Ave,SWAMPSCOTT,291,459,34,42.480603,-70.915223
16922,6131,262 Essex St,SWAMPSCOTT,291,459,35,42.479519,-70.916461
16923,16131,Essex St @ Jackson Pk,SWAMPSCOTT,291,459,36,42.478007,-70.918417
16924,6132,Essex St @ Burpee Rd,SWAMPSCOTT,291,459,37,42.476929,-70.919883
16925,16132,Essex St opp Burrill St,SWAMPSCOTT,291,459,38,42.475905,-70.921646
16926,6133,Essex St @ Cherry St,SWAMPSCOTT,291,459,39,42.475663,-70.9254
16927,6134,13 Essex St,LYNN,163,459,40,42.475693,-70.926561
16928,6135,Essex St @ Eastern Ave,LYNN,163,459,41,42.474691,-70.928503
16929,6136,Essex St @ Empire St,LYNN,163,459,42,42.473471,-70.930517
16930,6137,141 Essex St,LYNN,163,459,43,42.472744,-70.932294
16931,6138,Essex St @ Porter St,LYNN,163,459,44,42.472436,-70.933172
16932,6139,Essex St @ Chatham St,LYNN,163,459,45,42.471771,-70.934509
16933,6140,Essex St @ Fayette St,LYNN,163,459,46,42.470583,-70.936888
16934,6141,Chestnut St @ Union St,LYNN,163,459,47,42.469101,-70.936961
16935,7232,Union St @ Shorey St,LYNN,163,459,48,42.468281,-70.938453
16936,7233,Union St @ Union Ct,LYNN,163,459,49,42.467951,-70.939119
16937,7234,Union St @ Joyce St,LYNN,163,459,50,42.466979,-70.941529
16938,7236,Silsbee St @ Union St,LYNN,163,459,51,42.465028,-70.942263
16939,6669,Mt Vernon @ Exchange St,LYNN,163,459,52,42.463638,-70.942963
16940,16653,Market St @ Commuter Rail,LYNN,163,459,53,42.462028,-70.947286
16941,6674,Market St @ City Hall Sq,LYNN,163,459,54,42.464088,-70.950931
16942,6780,N Common St @ Hanover St,LYNN,163,459,55,42.463812,-70.955229
16943,6781,N Common St @ Baker St,LYNN,163,459,56,42.463646,-70.957722
16944,6782,N Common St @ Whiting St,LYNN,163,459,57,42.463612,-70.9589
16945,6783,N Common St @ Park St,LYNN,163,459,58,42.463576,-70.96018
16946,6784,N Common St @ Holton Pl,LYNN,163,459,59,42.463332,-70.961676
16947,4451,N Common St @ Western Ave,LYNN,163,459,60,42.462545,-70.965403
16948,4487,743 Western Ave,LYNN,163,459,61,42.462357,-70.965985
16949,4488,Western Ave @ Breed Square,LYNN,163,459,62,42.460484,-70.96808
16950,4489,Western Ave @ Summer St,LYNN,163,459,63,42.458463,-70.970324
16951,4490,Western Ave @ Burns St,LYNN,163,459,64,42.457266,-70.971702
16952,4491,Western Ave @ Ida St,LYNN,163,459,65,42.456045,-70.973116
16953,4492,Western Ave @ MBTA Lynn Garage,LYNN,163,459,66,42.45533,-70.973943
16954,4494,Western Ave @ Cooper St,LYNN,163,459,67,42.453725,-70.975773
16955,4495,Salem Tnpk @ Ballard St,SAUGUS,262,459,68,42.449386,-70.980817
16956,4497,Broadway @ Ward St,REVERE,248,459,69,42.421723,-71.004454
16957,4498,462 American Legion Hwy,REVERE,248,459,70,42.420668,-71.003338
16958,4499,American Legion Hwy @ Hutchinson St,REVERE,248,459,71,42.418906,-71.002145
16959,4500,American Legion Hwy @ Revere St,REVERE,248,459,72,42.416633,-71.003338
16960,14717,American Legion Hwy @ Beach St - Bell Circle,REVERE,248,459,73,42.410055,-71.002031
16961,4718,280 Burbank Hwy,REVERE,248,459,74,42.402389,-71.004488
16962,4719,40 Burbank Hwy,REVERE,248,459,75,42.397479,-71.008394
16963,4720,McClellan Highway opp Suffolk Downs,BOSTON,35,459,76,42.393643,-71.011495
16964,4721,McClellan Highway @ Boardman St,BOSTON,35,459,77,42.391632,-71.013123
16965,4722,McClellan Highway opp Addison St,BOSTON,35,459,78,42.386199,-71.019339
16966,7094,Terminal C - Departures Level,BOSTON,35,459,79,42.366624,-71.017217
16967,2215,B St @ Seaport Blvd,BOSTON,35,459,80,42.350325,-71.042907
16968,242,Seaport Blvd @ Seaport Hotel,BOSTON,35,459,81,42.349604,-71.040867
16969,11218,Congress St @ A St,BOSTON,35,459,82,42.350374,-71.048494
16970,218,Congress St @ Sleeper St,BOSTON,35,459,83,42.351564,-71.050356
16971,892,Summer St @ Dorchester Ave,BOSTON,35,459,84,42.3515,-71.052999
16972,6535,Franklin St @ Devonshire St,BOSTON,35,459,85,42.35548,-71.057247
16973,16535,Otis St @ Summer St,BOSTON,35,459,86,42.354219,-71.05853
16974,16535,Otis St @ Summer St,BOSTON,35,459,87,42.354219,-71.05853
16975,6564,Summer St @ South Station- Red Line entrance,BOSTON,35,459,88,42.352421,-71.054882
16976,238,Congress St @ Sleeper St,BOSTON,35,459,89,42.351471,-71.050201
16977,30239,Congress St @ A St,BOSTON,35,459,90,42.350338,-71.048438
16978,242,Seaport Blvd @ Seaport Hotel,BOSTON,35,459,91,42.349604,-71.040867
16979,7094,Terminal C - Departures Level,BOSTON,35,459,92,42.366624,-71.017217
16980,4727,McClellan Highway @ Addison St,BOSTON,35,459,93,42.386161,-71.019251
16981,4728,McClellan Highway @ Boardman St,BOSTON,35,459,94,42.391599,-71.012968
16982,4730,Burbank Hwy @ Suffolk Downs,REVERE,248,459,95,42.395962,-71.009428
16983,4731,Opp 40 Burbank Hwy,REVERE,248,459,96,42.397242,-71.0084
16984,4732,281 Burbank Hwy,REVERE,248,459,97,42.401639,-71.004891
16985,4526,American Legion Hwy @ Bell Circle,REVERE,248,459,98,42.409952,-71.001866
16986,45261,133 - 135 American Legion Hwy,REVERE,248,459,99,42.412623,-71.00291
16987,4512,American Legion Hwy @ Revere St,REVERE,248,459,100,42.416443,-71.003276
16988,4513,American Legion Hwy @ Hutchinson St,REVERE,248,459,101,42.418858,-71.002004
16989,4515,Brown Circle Rotary,REVERE,248,459,102,42.420889,-71.003528
16990,45151,107 Salem Tnpk,REVERE,248,459,103,42.430712,-70.997477
16991,4516,Salem Tnpk @ Ballard St,SAUGUS,262,459,104,42.449376,-70.980616
16992,4518,1067 Western Ave,LYNN,163,459,105,42.453725,-70.975773
16993,4520,Western Ave opp Lynn Garage,LYNN,163,459,106,42.45518,-70.974115
16994,45211,Western Ave opp Ida St,LYNN,163,459,107,42.456045,-70.973116
16995,4521,Western Ave @ Minot St,LYNN,163,459,108,42.457588,-70.971327
16996,4522,Western Ave @ Summer St,LYNN,163,459,109,42.458711,-70.970032
16997,4523,Western Ave @ Walden St,LYNN,163,459,110,42.460726,-70.967836
16998,4524,760 Western Ave,LYNN,163,459,111,42.462197,-70.966257
16999,4525,S Common St @ Elm St,LYNN,163,459,112,42.462624,-70.964297
17000,6821,170 S Common St,LYNN,163,459,113,42.462669,-70.962055
17001,6822,S Common St @ Huss Ct,LYNN,163,459,114,42.462776,-70.960202
17002,6823,S Common St @ Shepard St,LYNN,163,459,115,42.463003,-70.958553
17003,6824,S Common St @ Blossom St,LYNN,163,459,116,42.46335,-70.955987
17004,6825,50 S Common St,LYNN,163,459,117,42.463485,-70.954963
17005,6827,S Common St @ Market St,LYNN,163,459,118,42.464169,-70.951787
17006,6773,Market St @ Andrew St,LYNN,163,459,119,42.462935,-70.94891
17007,14748,Lynn Commuter Rail Busway,LYNN,163,459,120,42.46191,-70.945999
17008,6600,Union St @ Exchange St,LYNN,163,459,121,42.463701,-70.943838
17009,6830,Union St @ Silsbee St,LYNN,163,459,122,42.466379,-70.942191
17010,6831,Union St @ Smith St,LYNN,163,459,123,42.466879,-70.941642
17011,6832,Union St @ W Green St,LYNN,163,459,124,42.467402,-70.94078
17012,6833,Union St @ Pinkham St,LYNN,163,459,125,42.467951,-70.939119
17013,6834,Union St @ Chestnut St,LYNN,163,459,126,42.468982,-70.937046
17014,6142,Essex St @ Fayette St,LYNN,163,459,127,42.470583,-70.936888
17015,6143,Essex St @ Chatham St,LYNN,163,459,128,42.471673,-70.934702
17016,6144,Essex St opp Porter St,LYNN,163,459,129,42.472475,-70.933071
17017,6145,Essex St @ Empire St,LYNN,163,459,130,42.473512,-70.93044
17018,6146,Essex St @ Eastern Ave,LYNN,163,459,131,42.474575,-70.928691
17019,6147,Essex St opp Cherry St,SWAMPSCOTT,291,459,132,42.475663,-70.9254
17020,6148,Essex St @ Essex Ave,SWAMPSCOTT,291,459,133,42.475614,-70.923633
17021,6149,Essex St @ Burrill St,SWAMPSCOTT,291,459,134,42.475781,-70.921924
17022,6150,Essex St @ Elm Pl,SWAMPSCOTT,291,459,135,42.47635,-70.920618
17023,6151,253 Essex St,SWAMPSCOTT,291,459,136,42.479519,-70.916461
17024,6152,Essex St @ Stetson Ave,SWAMPSCOTT,291,459,137,42.480603,-70.915223
17025,6153,Essex St @ Eastman Ave,SWAMPSCOTT,291,459,138,42.48206,-70.91423
17026,6154,Essex St @ Alvin Rd,SWAMPSCOTT,291,459,139,42.482815,-70.91227
17027,6155,Essex St @ Ryan Pl,SWAMPSCOTT,291,459,140,42.48302,-70.911311
17028,6156,Essex St @ Shopping Center,SWAMPSCOTT,291,459,141,42.48387,-70.907647
17029,16156,Opp 1000 Loring Ave,SALEM,258,459,142,42.485106,-70.903656
17030,6157,Loring Ave @ Vinnin St,SALEM,258,459,143,42.485771,-70.901702
17031,6158,Loring Ave @ Maple Ave,SALEM,258,459,144,42.48721,-70.89995
17032,6159,Loring Ave @ Chandler Rd,SALEM,258,459,145,42.488364,-70.898547
17033,6160,Opp 494 Loring Ave,SALEM,258,459,146,42.489019,-70.897755
17034,6161,Opp 446 Loring Ave,SALEM,258,459,147,42.490008,-70.896554
17035,6162,Loring Ave opp Riverview St,SALEM,258,459,148,42.491216,-70.895046
17036,6163,Loring Ave @ Leggs Hill Rd,SALEM,258,459,149,42.492151,-70.893275
17037,6164,Loring Ave @ Lincoln Rd,SALEM,258,459,150,42.493834,-70.89295
17038,6165,Loring Ave @ Grant Rd,SALEM,258,459,151,42.495978,-70.895113
17039,6166,Loring Ave @ Monroe Rd,SALEM,258,459,152,42.497365,-70.894965
17040,6167,Loring Ave @ Sumner Rd,SALEM,258,459,153,42.498191,-70.894975
17041,6168,Loring Ave opp Jefferson Ave,SALEM,258,459,154,42.49991,-70.895868
17042,6169,Loring Ave @ Raymond Rd,SALEM,258,459,155,42.501713,-70.895033
17043,6170,Loring Ave @ Rainbow Terr,SALEM,258,459,156,42.502674,-70.893599
17044,16170,Loring Ave @ Salem State University,SALEM,258,459,157,42.504737,-70.891249
17045,6171,Opp 352 Lafayette St,SALEM,258,459,158,42.505466,-70.890749
17046,6173,Lafayette St @ Clifton Ave,SALEM,258,459,159,42.506872,-70.891054
17047,6174,Lafayette St @ Ocean Ave,SALEM,258,459,160,42.508191,-70.891294
17048,6175,Lafayette St @ Willow Ave,SALEM,258,459,161,42.509554,-70.891551
17049,6176,Lafayette St @ Leach St,SALEM,258,459,162,42.511033,-70.891833
17050,6177,Lafayette St @ Saltonstall Pkwy,SALEM,258,459,163,42.51271,-70.892147
17051,16177,Lafayette @ Leavitt St,SALEM,258,459,164,42.514447,-70.892469
17052,6100,Leavitt St @ Congress St,SALEM,258,459,165,42.515018,-70.889337
17053,6102,Congress St @ Shetland Park Industrial Park,SALEM,258,459,166,42.517787,-70.889355
17054,7155,Congress St @ Derby St,SALEM,258,459,167,42.520587,-70.890077
17055,17150,Derby St @ Lafayette St,SALEM,258,459,168,42.519535,-70.893233
17056,6181,New Derby St @ Klopp Alley,SALEM,258,459,169,42.519491,-70.894096
17057,4562,Washington St @ New Derby St,SALEM,258,459,170,42.519897,-70.895401
17058,4563,Washington St @ Federal St,SALEM,258,459,171,42.523142,-70.895848
17059,37150,Salem Commuter Rail Station,SALEM,258,459,172,42.524472,-70.89608
18261,17091,Terminal A,BOSTON,35,741,1,42.36464,-71.020829
18262,27092,Terminal B Stop 1 - Arrivals Level,BOSTON,35,741,2,42.361397,-71.018523
18263,17093,Terminal B Stop 2 - Arrivals Level,BOSTON,35,741,3,42.36307,-71.018396
18264,17094,Terminal C - Arrivals Level,BOSTON,35,741,4,42.367225,-71.017822
18265,17095,Terminal E - Arrivals Level,BOSTON,35,741,5,42.369639,-71.021028
18266,17096,Congress @ World Trade Center Sta,BOSTON,35,741,6,42.348831,-71.042415
18267,74614,Silver Line Way before Manulife Building,BOSTON,35,741,7,42.347138,-71.038845
18268,74615,World Trade Center - Inbound,BOSTON,35,741,8,42.348342,-71.042629
18269,74616,Courthouse - Inbound,BOSTON,35,741,9,42.35245,-71.046814
18270,74617,South Station Silver Line - Inbound,BOSTON,35,741,10,42.352651,-71.055348
18271,74611,South Station Silver Line - Outbound,BOSTON,35,741,11,42.352616,-71.055277
18272,74612,Courthouse - Outbound,BOSTON,35,741,12,42.352385,-71.046889
18273,74613,World Trade Center - Outbound,BOSTON,35,741,13,42.348258,-71.042633
18274,74624,Silver Line Way after Manulife Building,BOSTON,35,741,14,42.347147,-71.037779
18275,17091,Terminal A,BOSTON,35,741,15,42.364641,-71.020829
18276,31255,Dry Dock Ave @ Design Center Place,BOSTON,35,742,1,42.344671,-71.03447
18277,30250,21 Dry Dock Ave,BOSTON,35,742,2,42.344729,-71.030886
18278,30251,25 Dry Dock Ave,BOSTON,35,742,3,42.344766,-71.028419
18279,31258,88 Black Falcon,BOSTON,35,742,4,42.343749,-71.026328
18280,31257,Northern Ave @ Tide St,BOSTON,35,742,5,42.345171,-71.032005
18281,31256,Northern Ave opp Harbor St,BOSTON,35,742,6,42.346503,-71.034909
18282,74614,Silver Line Way before Manulife Building,BOSTON,35,742,7,42.347138,-71.038845
18283,74615,World Trade Center - Inbound,BOSTON,35,742,8,42.348342,-71.042629
18284,74616,Courthouse - Inbound,BOSTON,35,742,9,42.35245,-71.046814
18285,74617,South Station Silver Line - Inbound,BOSTON,35,742,10,42.352651,-71.055348
18286,74611,South Station Silver Line - Outbound,BOSTON,35,742,11,42.352616,-71.055277
18287,74612,Courthouse - Outbound,BOSTON,35,742,12,42.352385,-71.046889
18288,74613,World Trade Center - Outbound,BOSTON,35,742,13,42.348258,-71.042633
18289,74624,Silver Line Way after Manulife Building,BOSTON,35,742,14,42.347147,-71.037779
18290,247,Northern Ave @ Harbor St,BOSTON,35,742,15,42.346678,-71.035244
18291,30249,Northern Ave @ Tide St,BOSTON,35,742,16,42.345137,-71.031929
18292,31255,Dry Dock Ave @ Design Center Place,BOSTON,35,742,17,42.344672,-71.03447
18327,74614,Silver Line Way before Manulife Building,BOSTON,35,746,1,42.347138,-71.038845
18328,74615,World Trade Center - Inbound,BOSTON,35,746,2,42.348342,-71.042629
18329,74616,Courthouse - Inbound,BOSTON,35,746,3,42.35245,-71.046814
18330,74617,South Station Silver Line - Inbound,BOSTON,35,746,4,42.352651,-71.055348
18331,74611,South Station Silver Line - Outbound,BOSTON,35,746,5,42.352616,-71.055277
18332,74612,Courthouse - Outbound,BOSTON,35,746,6,42.352385,-71.046889
18333,74613,World Trade Center - Outbound,BOSTON,35,746,7,42.348258,-71.042633
18334,74624,Silver Line Way after Manulife Building,BOSTON,35,746,8,42.347148,-71.037779
